listingId,formattedCompany,comparable,delivery.state,delivery.latitude,delivery.longitude,delivery.city,numVehicles,vehiclesCount,vehicleOperable,vehicles,vehicle_make,vehicle_types,wideLoad,pickup.state,pickup.latitude,pickup.longitude,pickup.city,preferred_shipper,price,truckMiles,rating_count,rating_license,rating_score
41221530,"M&J Auto Transport, Inc.",False,AL,33.173002,-87.613500,Tuscaloosa,1,1,False,(Pickup),2013 ford f250,(Pickup),0,AK,60.885768,-149.459365,Hope,False,400,-1,168,valid,99.1%
41503163,MIG Transportation Inc,False,CA,38.642566,-121.442478,sacramento,1,1,True,(SUV),2015 nissan murano,(SUV),0,AK,61.222463,-149.867694,anchorage,False,9999,-1,113,valid,100.0%
41090000,SWAT Inc.,False,WA,47.131890,-122.411850,tacoma,1,1,True,(RV),2002 fleetwood bounder,(RV),0,AK,61.080278,-149.701828,anchorage,False,1400,-1,638,valid,98.4%
41327193,Auto Island Credit,True,AL,33.540737,-86.801371,birmingham,1,1,True,(Other),trailer van,(Other),0,AL,33.405847,-86.952715,bessemer,False,250,17,5,valid,100.0%
41469893,Prominence Motors LLC,True,AL,34.711400,-86.549321,Huntsville,1,1,True,(Car),2006 toyota corolla,(Car),0,AL,33.337626,-86.960735,Bessemer,False,80,125,1,valid,100.0%
41464259,United Road Logistics LLC,True,AL,33.351416,-86.821528,hoover,1,0,True,(Car),2014 kia rio,(Car),0,AL,33.648641,-86.699286,birmingham,False,36,33,1165,valid,98.8%
41484261,United Road Logistics LLC,True,AL,34.759182,-86.689641,huntsville,1,0,True,(Car),2014 mitsubishi outlander sport,(Car),0,AL,34.830274,-87.664543,florence,False,75,60,1165,valid,98.8%
41491190,Carsarrive Network Inc.,True,AL,33.309422,-86.764955,pelham,1,1,True,(Car),2007 chevrolet cobalt inop w/ keys,(Car),0,AL,33.421090,-86.783272,hoover,False,75,17,953,valid,99.4%
41483920,Carsarrive Network Inc.,True,AL,33.351416,-86.821528,hoover,1,1,True,(Car),2011 ram 1500- inop no keys,(Car),0,AL,34.606181,-86.545601,huntsville,False,115,113,953,valid,99.4%
41498035,"Mercury Auto Transport, Inc.",True,AL,32.292881,-84.974062,fort mitchell,1,1,False,(Car),2011 nissan sentra,(Car),0,AL,34.759182,-86.689641,huntsville,False,125,255,2713,valid,100.0%
37115198,Auto Island Credit,True,AL,33.464529,-86.806566,birmingham,5,5,True,"(4 Car, Pickup)","ford fusion
 honda accord
 honda ridgeline
 nissan altima
 toyota camry","(4 Car, Pickup)",0,AL,30.808850,-88.178103,mobile,False,575,249,5,valid,100.0%
41419636,United Road Logistics LLC,True,AL,33.603374,-86.494434,moody,1,0,False,(Car),2012 chrysler 200,(Car),0,AL,31.903154,-85.869093,troy,False,187,156,1165,valid,98.8%
41500201,"Manhattan Auto Transfer, Inc. / M A Trans ...",True,AL,32.570735,-85.575415,auburn,1,1,True,(Car),2014 ford fusion,(Car),0,AL,33.110098,-87.552052,tuscaloosa,False,170,184,835,valid,100.0%
41435130,Dynamic Auto,True,AR,35.921793,-90.535224,brookland,1,1,False,(Pickup),2015 gmc sierra 1500,(Pickup),0,AL,33.462639,-87.092621,bessemer,False,150,315,93,valid,98.9%
41483859,Brewster Hotshots,True,AR,34.603058,-92.491436,bryant,1,1,True,(Pickup),2014 chevrolet silverado 2500hd,(Pickup),0,AL,34.149380,-86.747356,cullman,False,250,372,111,valid,100.0%
41451021,Dynamic Auto,True,AR,35.921793,-90.535224,brookland,1,1,False,(Pickup),2013 ford f-150,(Pickup),0,AL,32.252150,-86.208627,montgomery,False,150,417,93,valid,98.9%
41496658,AT Reliable Trans Inc (prev. At Auto Trans...,True,AZ,33.435698,-111.927836,tempe,1,1,True,(SUV),2010 honda pilot,(SUV),0,AL,33.540920,-86.674476,birmingham,False,0,1714,11,valid,100.0%
41497704,I Move Auto,True,AZ,33.665600,-112.354400,surprise,1,1,False,(Other),1969 chevrolet chevelle,(Other),0,AL,34.367864,-85.567582,gaylesville,False,800,1763,132,valid,100.0%
41454123,Wenzel Freight Brokerage Inc,True,AZ,33.456665,-111.812317,Mesa,1,1,True,(Car),1965 ford mustang,(Car),0,AL,33.932792,-87.306653,Jasper,False,600,1640,1,valid,100.0%
41454857,1st Class Auto Transportation Inc,True,AZ,33.370003,-112.035334,phoenix,1,1,False,(Other),2003 honda accord ex v6 automatic,(Other),0,AL,33.620913,-86.116838,lincoln,False,700,1741,487,valid,99.8%
41219100,Passage Auto Transport,True,CA,34.169747,-118.122206,pasadena,1,1,True,(Car),2010 honda civic,(Car),0,AL,32.557826,-85.479864,auburn,False,700,2164,925,valid,99.5%
41449475,"Mercury Auto Transport, Inc.",True,CA,33.749095,-117.993666,westminster,1,1,True,(Car),2013 lexus es 350,(Car),0,AL,33.351416,-86.821528,birmingham,False,700,2051,2713,valid,100.0%
41487132,Ironclad Auto Transport LLC,True,CA,34.424742,-118.410016,canyon country,1,1,True,(Car),2011 bmw 328,(Car),0,AL,34.620893,-87.013675,decatur,False,640,1972,879,valid,100.0%
41480449,ING Solutions,True,CA,39.544795,-122.266428,willows,1,1,True,(Pickup),2007 ford f250 super 4dr ext,(Pickup),0,AL,30.808850,-88.178103,eight mile,False,1100,2398,707,valid,99.6%
41308306,"DIY Transport, Inc.",True,CA,38.014874,-121.911466,pittsburg,1,1,False,(Car),2006 chrysler sebring,(Car),0,AL,31.368425,-85.869335,enterprise,False,800,2489,1988,valid,100.0%
41170942,Creative Rides Inc.,True,CA,33.875014,-118.240778,compton,1,1,False,(RV),1981 southwind class a rv,(RV),0,AL,31.494984,-86.913842,evergreen,False,2000,2114,1020,valid,98.7%
41404928,Premium Auto Movers LLC,True,CA,34.104014,-117.292518,san bernardino,1,1,True,(SUV),2008 honda pilot,(SUV),0,AL,32.292881,-84.974062,fort mitchell,False,801,2133,609,valid,100.0%
41400823,Door to Door Transport,True,CA,34.104014,-117.292518,san bernardino,1,1,True,(SUV),2008 honda pilot,(SUV),0,AL,32.292881,-84.974062,fort mitchell,False,700,2133,2915,valid,99.9%
41502914,Q Auto Transport LLC,True,CA,32.721120,-117.166986,san diego,1,1,True,(Car),2016 kia soul,(Car),0,AL,34.335984,-86.310172,guntersville,False,750,2071,1465,valid,100.0%
41269647,Total Car Shipping,True,CA,35.332147,-116.662336,fort irwin,1,1,True,(Pickup),2008 nissan frontier crew cab le,(Pickup),0,AL,34.821601,-86.731102,harvest,False,950,1927,2320,valid,100.0%
41195614,Ford's Transportation Works,True,CA,33.875896,-117.993701,buena park,1,1,True,(Pickup),2003 toyota tundra,(Pickup),0,AL,34.759182,-86.689641,huntsville,False,800,2008,88,valid,100.0%
41476099,Nation Auto Transport LLC,True,CA,33.791307,-118.318634,lomita,1,1,True,(Van),2005 toyota sienna,(Van),0,AL,34.759182,-86.689641,huntsville,False,780,2028,1360,valid,99.9%
41488474,BWT Group LLC,True,CA,38.817886,-121.276169,rocklin,1,1,True,(SUV),2013 jeep patriot,(SUV),0,AL,34.813620,-86.503450,huntsville,False,800,2333,1036,valid,98.6%
41358986,"FCC Logistics, Inc.",True,CA,33.875014,-118.240778,compton,1,1,True,(SUV),2017 mercedes-benz gls450,(SUV),0,AL,31.411345,-85.495512,midland city,False,750,2175,164,valid,100.0%
41162485,Nationwide Transport Services LLC,True,CA,37.342165,-121.906775,san jose,1,1,True,(SUV),2007 gmc yukon,(SUV),0,AL,30.666570,-88.266256,mobile,False,1000,2348,3518,valid,100.0%
41443511,A1A Express Auto Shipping LLC,True,CA,37.949868,-122.540733,kentfield,1,1,True,(Pickup),2016 ford f-150 reg.cab,(Pickup),0,AL,33.217817,-87.539787,tuscaloosa,False,825,2339,1279,valid,100.0%
41393623,Heartland Auto Shippers,True,CO,38.643180,-104.829924,colorado springs,1,1,True,(Car),2015 kia optima,(Car),0,AL,32.252150,-86.208627,montgomery,False,450,1432,406,valid,100.0%
41496654,Rite Way Auto Transport  LLC,True,CO,38.277590,-104.644991,pueblo,1,1,True,(Car),2014 mercedes-benz c-class,(Car),0,AL,34.772352,-87.554916,muscle shoals,False,548,1208,2085,valid,99.6%
41373139,Vehicle Relocation Specialists Inc,True,CO,39.675748,-104.886004,denver,1,1,True,(Car),2007 chevrolet impala,(Car),0,AL,30.783878,-88.271423,semmes,False,700,1393,138,valid,100.0%
41429999,RoadRunner Auto Transport,True,FL,27.250705,-80.239969,jensen beach,1,1,True,(Car),1960 volvo pv544,(Car),0,AL,33.694836,-85.733730,anniston,False,300,647,2591,valid,100.0%
40891097,Bluemont Investment,True,FL,30.456169,-81.537453,jacksonville,1,1,True,(Van),2002 toyota sienna,(Van),0,AL,33.337626,-86.960735,bessemer,False,180,483,6,valid,100.0%
41415600,The Motorsport Lab Inc.,False,FL,27.336400,-82.530800,Sarasota,1,1,True,(Car),2006 lamborghini gallardo,(Car),0,AL,33.519260,-86.807546,Birmingham,False,700,595,7,valid,100.0%
41448016,"DIY Transport, Inc.",True,FL,28.706389,-81.343062,longwood,4,4,False,"(2 Car, Pickup, SUV)","1968 chevrolet c10
 1971 chevrolet el camino
 1990 mazda miata
 2012 jeep wrangler","(2 Car, Pickup, SUV)",0,AL,33.351416,-86.821528,birmingham,False,800,558,1988,valid,100.0%
41450160,RNR Logistics,True,FL,30.413881,-81.777983,jacksonville,1,1,False,(Car),2009 honda accord,(Car),0,AL,31.146161,-85.412448,dothan,False,250,261,307,valid,100.0%
41503991,Maranatha Auto Carrier Inc.,False,FL,25.773900,-80.193700,miami,1,1,False,(SUV),2011 toyota rav4,(SUV),0,AL,30.808850,-88.178103,eight mile,False,350,735,162,valid,100.0%
41504978,Best Deal Auto Shop Inc,True,FL,25.908307,-80.252466,opa locka,1,1,True,(Car),2011 toyota corolla,(Car),0,AL,30.808850,-88.178103,eight mile,False,300,730,382,valid,96.3%
41450264,Dorado Logistics LLC,True,FL,25.852189,-80.206726,miami,1,1,True,(Car),2017 ford shelby gt350,(Car),0,AL,30.383821,-87.715678,foley,False,325,708,117,valid,100.0%
41363385,LMR Auto Trans Brok,True,FL,27.810426,-81.986616,mulberry,1,1,False,(Pickup),2010 ford f-150 long bed extended cab 4x4,(Pickup),0,AL,34.432986,-86.931126,hartselle,False,595,641,1407,valid,100.0%
41409149,Massrec LLC,True,FL,27.250109,-80.383096,port saint lucie,1,1,True,(Car),2001 subaru wrx,(Car),0,AL,34.759182,-86.689641,huntsville,False,250,780,337,valid,99.4%
41225000,Direct Connect Auto Transport Inc.,True,FL,26.241801,-80.164602,pompano beach,1,1,True,(SUV),2003 honda cr-v,(SUV),0,AL,33.540920,-86.674476,irondale,False,350,719,1945,valid,99.8%
41398318,Qbic Freight Solutions LLC,True,FL,26.084586,-80.177016,fort lauderdale,1,1,True,(Car),1965 ford mustang,(Car),0,AL,33.855077,-85.775960,jacksonville,False,450,747,143,valid,100.0%
41496680,Carsarrive Network Inc.,True,FL,30.454597,-87.258345,pensacola,1,1,True,(Car),2012 hyundai sonata inop-heavy tow,(Car),0,AL,30.665624,-88.103864,mobile,False,160,60,953,valid,99.4%
41144662,Patriot Express Global,False,FL,30.338800,-81.671400,jacksonville,1,1,True,(Motorcycle),1973 honda sl 350,(Motorcycle),0,AL,31.499156,-87.329404,monroeville,False,150,408,9,valid,100.0%
41448527,"Mercury Auto Transport, Inc.",True,FL,26.730507,-81.845898,north fort myers,1,1,True,(SUV),2016 jeep wrangler unlimited 4dr hardtop,(SUV),0,AL,32.404500,-86.245900,montgomery,False,350.99,604,2713,valid,100.0%
41507218,Brumm Logistics Inc,True,FL,30.274794,-81.751056,jacksonville,1,1,True,(Car),2001 lincoln town car,(Car),0,AL,32.252150,-86.208627,montgomery,False,200,360,42,valid,100.0%
41460962,All States Auto Transport Inc.,False,FL,25.773900,-80.193700,miami,1,1,False,(Pickup),2008 ford f-150,(Pickup),0,AL,32.374400,-86.304300,montgomery,False,400,697,727,valid,100.0%
41433809,Welch Automotive Group Inc,True,FL,26.069628,-80.224512,fort lauderdale,1,1,False,(Car),2012 hyundai accent,(Car),0,AL,33.603374,-86.494434,moody,False,300,769,296,valid,99.8%
41502243,Truck Heavy Financial,True,FL,26.101490,-80.122776,fort lauderdale,1,1,True,(SUV),2013 ford escape,(SUV),0,AL,33.603374,-86.494434,moody,False,300,775,57,valid,96.5%
41309389,Auto Shipping Group Inc.,True,FL,27.587240,-80.384540,vero beach,1,1,True,(SUV),2002 mitsubishi montero,(SUV),0,AL,33.412996,-88.038080,reform,False,300,699,949,valid,99.5%
41507128,Roshan Motors Llc (prev. JAX Auto Sale),True,FL,30.344659,-81.734322,jacksonville,1,1,True,(Car),2010 hyundai sonata,(Car),0,AL,34.662910,-86.988182,tanner,False,225,547,103,valid,97.6%
41492743,United Road Logistics LLC,True,GA,33.995107,-83.706529,winder,1,0,True,(Car),2014 toyota corolla,(Car),0,AL,31.335360,-86.408769,andalusia,False,144,307,1165,valid,98.8%
41385348,J&S Affordable Auto Broker and Parts Deale...,True,GA,33.813800,-84.550292,mableton,1,1,False,(Car),2006 honda civic,(Car),0,AL,34.321754,-86.496857,arab,False,100,143,70,valid,87.1%
41455257,"Baltic Auto Shipping, Inc",False,GA,32.082868,-81.137852,savannah,1,1,True,(Motorcycle),2012 harley davidson flhx,(Motorcycle),0,AL,34.765786,-87.108167,athens,False,150,491,1054,valid,99.6%
41498604,Intertrade Inc,True,GA,32.082868,-81.137852,savannah,1,1,False,(Car),2014 chevrolet camaro ls,(Car),0,AL,34.815206,-86.887521,athens,False,250,490,1276,valid,98.5%
41506776,MetroGistics LLC,True,GA,31.518596,-84.038378,albany,1,1,True,(Car),2015 jeep compass,(Car),0,AL,33.550306,-86.744878,birmingham,False,150,242,2680,valid,100.0%
41492525,United Road Logistics LLC,True,GA,33.621890,-84.521194,college park,1,0,False,(SUV),2015 lexus rx 350,(SUV),0,AL,33.540920,-86.674476,birmingham,False,250,139,1165,valid,98.8%
41495431,Inshippers Inc.,True,GA,33.934362,-84.467211,marietta,1,1,True,(Car),2012 honda civic,(Car),0,AL,33.508576,-86.895308,birmingham,False,125,160,114,valid,100.0%
41506151,Melat Karpurition,True,GA,32.292755,-81.231372,rincon,1,1,True,(Car),2016 toyota corolla,(Car),0,AL,33.540920,-86.674476,birmingham,False,200,380,481,valid,99.2%
41505049,Willy Nelson & the Wagoneers LLC,False,GA,32.588132,-83.659343,warner robins,1,1,False,(Pickup),2012 ford f-250,(Pickup),0,AL,33.519260,-86.807546,birmingham,False,250,256,148,valid,100.0%
41508010,Jonaike Enterprises LLC,True,GA,33.706736,-84.379520,atlanta,1,1,True,(Car),2005 toyota corolla,(Car),0,AL,30.808850,-88.178103,eight mile,False,150,325,73,valid,95.9%
41494478,Nasir Auto Sales LLC,True,GA,33.706736,-84.379520,atlanta,1,1,False,(Car),2004 toyota corolla,(Car),0,AL,30.808850,-88.178103,eight mile,False,140,325,13,valid,100.0%
41491448,"Al-Shati Al-Azark Showroom, Sale & Export ...",True,GA,32.292755,-81.231372,rincon,1,1,True,(Car),2008 hyundai veracruz,(Car),0,AL,30.808850,-88.178103,eight mile,False,250,494,477,valid,100.0%
41500254,MB Auto,True,GA,32.082868,-81.137852,savannah,1,1,False,(SUV),2002 mitsubishi montero,(SUV),0,AL,30.808850,-88.178103,eight mile,False,250,499,492,valid,99.0%
41502241,Intertrade Inc,True,GA,32.082868,-81.137852,savannah,1,1,False,(Car),2015 hyundai sonata sport 2 0t limited 2 0t,(Car),0,AL,30.808850,-88.178103,eight mile,False,250,499,1276,valid,98.5%
41505989,V&S Brothers Inc,True,GA,32.182094,-81.197620,port wentworth,1,1,False,(Car),2015 toyota prius 086895,(Car),0,AL,30.808850,-88.178103,eight mile,False,250,502,811,valid,99.8%
41486379,ShipYourCarNow LLC,True,GA,34.001740,-83.350823,athens,1,1,True,(Pickup),1996 ford f150,(Pickup),0,AL,30.383821,-87.715678,foley,False,250,412,3262,valid,99.8%
41501349,United Road Logistics LLC,True,GA,33.642552,-84.446495,college park,1,0,True,(SUV),2017 hyundai santa fe sport,(SUV),0,AL,34.035866,-85.865917,gadsden,False,140,107,1165,valid,98.8%
41501350,United Road Logistics LLC,True,GA,33.642552,-84.446495,college park,1,0,True,(SUV),2017 hyundai santa fe sport,(SUV),0,AL,34.035866,-85.865917,gadsden,False,140,107,1165,valid,98.8%
41483998,United American Auto Transport,True,GA,34.108712,-84.637923,acworth,1,1,True,(Car),2007 ford taurus,(Car),0,AL,32.707870,-87.616988,greensboro,False,100,240,2114,valid,100.0%
41507486,Nejoum Aljazeera,True,GA,32.292755,-81.231372,rincon,1,1,True,(Car),2004 toyota camry,(Car),0,AL,31.365057,-85.316170,headland,False,270,308,285,valid,100.0%
41434812,"Sims Waters & Associates, Inc",True,GA,32.182094,-81.197620,port wentworth,1,1,True,(Pickup),1968 chevrolet c10 stepside,(Pickup),0,AL,34.640756,-85.720746,henagar,False,300,368,225,valid,100.0%
41505236,Carsarrive Network Inc.,True,GA,33.578556,-84.601902,fairburn,1,1,True,(Car),2013 hyundai elantra-inop no key,(Car),0,AL,32.467355,-86.359491,millbrook,False,195,154,953,valid,99.4%
41484810,International Express Shipping Inc,True,GA,32.182094,-81.197620,port wentworth,1,1,True,(Car),2001 lexus ls 430,(Car),0,AL,30.665624,-88.103864,mobile,False,275,508,968,valid,100.0%
41501056,G&G Auto Sales LLC,True,GA,32.116618,-81.193193,savannah,1,1,True,(Car),2015 lexus es 350,(Car),0,AL,32.252150,-86.208627,montgomery,False,250,335,1112,valid,99.3%
41497331,RoadRunner Towing,True,GA,33.995107,-83.706529,winder,1,1,True,(Pickup),2016 10 units f-150 crew cabs 145''w/b will split 5 an 5,(Pickup),0,AL,34.772352,-87.554916,muscle shoals,False,2250,313,798,valid,100.0%
41436330,Diz  LLC / Molly Anne LLC,False,GA,33.956300,-83.988100,lawrenceville,1,1,True,(SUV),2010 ford explorer,(SUV),0,AL,32.683322,-85.403409,opelika,False,100,134,337,valid,99.3%
41435209,C&C Towing&Transport,True,GA,33.621890,-84.521194,atlanta,1,1,True,(Car),2009 nissan altima,(Car),0,AL,33.575430,-85.849327,oxford,False,100,91,43,valid,97.7%
41468684,Schumacher Cargo Logistics Inc.,True,GA,32.182094,-81.197620,port wentworth,1,1,True,(Motorcycle),1992 honda shadow,(Motorcycle),0,AL,32.407413,-85.104656,phenix city,False,250,262,785,valid,99.6%
41451299,Syngin Technology Inc.,True,GA,33.621890,-84.521194,atlanta,2,2,False,(2 Car),"2012 ford focus
 2014 kia forte",(2 Car),0,AL,33.623474,-86.203040,riverside,False,300,113,32,valid,100.0%
41503567,Mill Wright LLC,True,GA,32.082868,-81.137852,savannah,1,1,True,(Car),1919 dodge 4d,(Car),0,AL,33.376143,-86.071249,talladega,False,225,358,458,valid,99.3%
41398869,Classic Cadillac Atlanta Corp,True,GA,33.983238,-84.323001,atlanta,1,1,True,(SUV),2014 cadillac srx,(SUV),0,AL,31.903154,-85.869093,troy,False,150,195,176,valid,100.0%
41505640,Autovid,True,GA,33.946812,-83.995889,lawrenceville,1,1,True,(Car),2009 volkswagen cc,(Car),0,AL,33.110098,-87.552052,tuscaloosa,False,150,238,243,valid,98.8%
41477297,Montway Inc.,True,ID,43.560522,-116.289073,boise,1,1,True,(SUV),2017 audi q7,(SUV),0,AL,34.711400,-86.549321,huntsville,False,800,2046,1697,valid,100.0%
41507788,Ready Auto Transport (RAT),True,IL,39.817872,-88.962188,decatur,1,1,True,(Other),2016 chevrolet tahoe,(Other),0,AL,34.706075,-86.628803,huntsville,False,285,460,1697,valid,99.9%
41505757,Jidd Motors Inc.,True,IL,42.047211,-87.894388,des plaines,1,1,True,(SUV),2008 jeep wrangler,(SUV),0,AL,33.603374,-86.494434,moody,False,350,709,436,valid,99.5%
41265734,PRA Location Services LLC,True,KY,37.978539,-84.368840,lexington,1,1,True,(Car),2014 nissan rogue,(Car),0,AL,33.603374,-86.494434,moody,False,300,406,580,valid,100.0%
41501150,Nationwide Transport Services LLC,True,KY,36.948876,-86.607966,rockfield,1,1,True,(Other),2017 palletized cargo 40\\\' of pallets,(Other),0,AL,34.460601,-87.318804,moulton,False,500,210,3518,valid,100.0%
41442671,Vemark LLC,True,LA,31.311300,-92.445300,alexandria,1,1,True,(Car),2016 chevrolet impala,(Car),0,AL,34.620893,-87.013675,decatur,False,250,508,154,valid,98.4%
41501249,Bac Of New Orleans Inc,True,LA,30.089740,-89.811925,new orleans,1,1,True,(Car),2015 acura tlx,(Car),0,AL,33.462639,-87.092621,hueytown,False,200,329,39,valid,94.9%
41499101,Posey Transporters Inc. / Posey Logistics,False,LA,30.258107,-89.813418,slidell,1,1,False,(Car),2010 suzuki sx4,(Car),0,AL,30.477624,-88.228237,irvington,False,175,107,544,valid,100.0%
41485218,McMillon Movement Inc.,False,LA,30.450600,-91.154700,baton rouge,1,1,False,(Car),2010 chevrolet impala,(Car),0,AL,30.694500,-88.043100,mobile,False,180,198,203,valid,98.0%
41488431,MetroGistics LLC,True,LA,30.225369,-90.925334,gonzales,1,1,True,(Car),2013 gmc terrain,(Car),0,AL,30.665624,-88.103864,mobile,False,125,195,2680,valid,100.0%
41465680,Car Delivery USA Inc,True,MA,42.131775,-71.973205,charlton,1,1,True,(Car),2016 honda civic,(Car),0,AL,34.709737,-86.742356,madison,False,475,1097,2017,valid,99.6%
41411614,Secure Auto Shipping Inc. 1,True,MD,39.432812,-76.292424,edgewood,1,1,True,(Car),2009 bmw 5 series,(Car),0,AL,33.520800,-86.802700,birmingham,False,450,802,2001,valid,100.0%
41503584,Montway Inc- Relocation,True,MD,39.083900,-77.153400,rockville,1,1,True,(Car),2014 nissan altima,(Car),0,AL,33.520800,-86.802700,birmingham,False,350,747,257,valid,100.0%
41445942,Reindeer Logistics Inc. (prev. Reindeer Au...,True,MI,42.464700,-83.376400,farmington hills,1,1,True,(Car),2004 nissan sentra 4dr sdn 1.8 auto sulev,(Car),0,AL,34.709737,-86.742356,madison,False,400,654,980,valid,99.4%
41388892,Auto Shipping Group Inc.,True,MI,43.801688,-82.733578,harbor beach,1,1,True,(SUV),1996 geo tracker,(SUV),0,AL,30.282220,-87.564980,orange beach,False,375,1129,949,valid,99.5%
41496846,United Auto Transport,True,MI,43.801688,-82.733578,harbor beach,1,1,True,(SUV),1995 geo tracker,(SUV),0,AL,30.282220,-87.564980,orange beach,False,495,1129,1187,valid,99.6%
41482085,BWT Group LLC,True,MN,44.501358,-96.387234,hendricks,1,1,True,(Car),2010 ford focus,(Car),0,AL,33.499292,-86.880368,birmingham,False,600,1196,1036,valid,98.6%
41502068,All Terrain Logistics Inc (prev. All Terra...,True,MN,45.041966,-93.485542,plymouth,1,1,True,(Car),2013 hyundai azera,(Car),0,AL,33.399602,-86.682992,vestavia hills,False,500,1103,406,valid,99.0%
41488234,GSS,True,MO,38.802758,-91.246612,warrenton,1,1,True,(Motorcycle),2008 honda goldwing,(Motorcycle),0,AL,34.407120,-85.704552,fort payne,False,300,537,14,valid,100.0%
41506784,Car Credit Inc,True,MO,39.089378,-94.538050,kansas city,1,1,True,(Car),2013 hyundai sonata,(Car),0,AL,33.603374,-86.494434,moody,False,350,711,131,valid,98.5%
41504951,Auto Transport 123,True,MS,31.153213,-90.393508,mccomb,1,1,False,(Pickup),2004 ford f250 4door short bed  non dually,(Pickup),0,AL,33.603374,-86.494434,moody,False,250,320,2306,valid,100.0%
41280826,Heartland Auto Shippers,True,MT,48.052440,-113.863717,kalispell,1,1,True,(SUV),2012 ford expedition,(SUV),0,AL,34.821601,-86.731102,harvest,False,1150,2133,406,valid,100.0%
41507760,Ready Auto Transport (RAT),True,NC,35.450090,-82.978773,waynesville,1,1,True,(Other),2015 chevrolet suburban,(Other),0,AL,33.550306,-86.744878,birmingham,False,235,313,1697,valid,99.9%
41427841,Nationwide Transport Services LLC,True,NC,35.419708,-80.675816,concord,1,1,True,(Car),2003 honda civic,(Car),0,AL,33.088424,-86.067168,goodwater,False,225,388,3518,valid,100.0%
41476556,BWT Group LLC,True,NE,41.295474,-95.999814,omaha,1,1,True,(SUV),2001 bmw x5 3.0,(SUV),0,AL,32.485808,-85.121304,phenix city,False,680,1073,1036,valid,98.6%
41499463,Lampard Speed Inc,True,NJ,40.692524,-74.075359,jersey city,1,1,True,(Boat),2008 tahoe 195,(Boat),0,AL,34.815206,-86.887521,athens,False,600,936,223,valid,100.0%
41497661,American Shipping Line LLC,True,NJ,40.697442,-74.166362,newark,1,1,False,(Car),2014 toyota corolla,(Car),0,AL,33.337626,-86.960735,bessemer,False,375,971,296,valid,99.3%
41503338,Edvinas Exports,True,NJ,40.697442,-74.166362,newark,1,1,False,(SUV),2006 toyota highlander,(SUV),0,AL,33.462639,-87.092621,bessemer,False,525,976,277,valid,99.3%
41493087,Americar Sales Inc,True,NJ,40.624754,-74.249144,linden,1,1,True,(Car),2012 volkswagen passat,(Car),0,AL,30.808850,-88.178103,eight mile,False,450,1208,519,valid,98.8%
41403193,Auto Transport 123,True,NJ,39.394661,-74.517904,pleasantville,1,1,True,(Motorcycle),2006 honda vtx 1800,(Motorcycle),0,AL,34.052526,-85.928538,gadsden,False,250,869,2306,valid,100.0%
41461278,Auto Driveaway NJ,True,NJ,41.112803,-74.496232,stockholm,1,1,True,(Car),2016 toyota camry hybrid,(Car),0,AL,33.928320,-86.096080,gadsden,False,450,905,552,valid,99.8%
41506933,Jack Rabbit Transportation,True,NJ,39.841896,-74.963312,voorhees,1,1,True,(Car),2004 volkswagen r32,(Car),0,AL,30.282220,-87.564980,orange beach,False,450,1162,150,valid,92.3%
41506954,"King of the Road Transport, Inc.",True,NJ,39.841896,-74.963312,voorhees,1,1,True,(Car),2004 volkswagen r32,(Car),0,AL,30.282220,-87.564980,orange beach,False,425,1162,849,valid,99.9%
41484830,Stateway Auto Transportation,True,NM,35.576264,-106.106230,santa fe,1,1,True,(Car),2008 dodge magnum srt-8,(Car),0,AL,34.121219,-85.592660,centre,False,650,1340,2429,valid,98.9%
41489548,RoadRunner Auto Transport,True,NV,36.060082,-115.264440,las vegas,1,1,True,(Car),2015 mercedes-benz s-class,(Car),0,AL,33.173002,-87.613500,tuscaloosa,False,1400,1802,2591,valid,100.0%
41485997,Summit Motors Corp,True,NY,40.829982,-73.865990,bronx,1,1,False,(SUV),2016 toyota 4runner,(SUV),0,AL,30.808850,-88.178103,eight mile,False,400,1228,179,valid,99.4%
41418272,Reindeer Logistics Inc. (prev. Reindeer Au...,True,OH,41.536223,-83.564239,perrysburg,1,1,True,(Car),2000 volkswagen golf 4dr hb gls tdi,(Car),0,AL,33.855077,-85.775960,jacksonville,False,500,666,980,valid,99.4%
41363195,Simell LLC,True,OH,41.677620,-81.329808,mentor,1,1,False,(Other),2000 chevrolet c3500hd,(Other),0,AL,34.662910,-86.988182,tanner,False,900,651,25,valid,100.0%
41498441,Viceroy Auto Trans,True,OR,45.513936,-122.644123,portland,1,1,True,(SUV),2013 lexus rx 450h,(SUV),0,AL,33.399602,-86.682992,birmingham,False,875,2561,454,valid,100.0%
41489478,Stateway Auto Transportation,True,PA,39.951061,-75.165620,philadelphia,1,1,True,(Car),2002 honda accord,(Car),0,AL,33.648641,-86.699286,birmingham,False,350,891,2429,valid,98.9%
41499686,Montway Inc- Relocation,True,PA,41.408800,-75.662600,scranton,1,1,True,(Car),2014 nissan altima,(Car),0,AL,33.520800,-86.802700,birmingham,False,400,914,257,valid,100.0%
41499685,Montway Inc- Relocation,True,PA,41.114900,-76.828763,watsontown,1,1,True,(Car),2014 nissan altima,(Car),0,AL,34.052526,-85.928538,gadsden,False,400,812,257,valid,100.0%
41499747,Premium Auto Movers LLC,True,SC,34.213396,-79.820616,florence,1,1,True,(Car),2012 honda civic,(Car),0,AL,33.520800,-86.802700,birmingham,False,250,437,609,valid,100.0%
41507076,MetroGistics LLC,True,SC,34.995042,-81.982190,spartanburg,1,1,True,(Car),2014 cadillac srx,(Car),0,AL,33.421090,-86.783272,vestavia,False,175,323,2680,valid,100.0%
41492585,United Road Logistics LLC,True,TN,35.908356,-86.777932,franklin,1,0,True,(Pickup),2010 toyota tundra 4wd truck,(Pickup),0,AL,31.146161,-85.412448,dothan,False,190,376,1165,valid,98.8%
41489140,MetroGistics LLC,True,TN,35.918284,-83.999908,knoxville,1,1,True,(Car),2014 jeep grand cherokee,(Car),0,AL,30.665624,-88.103864,mobile,False,375,509,2680,valid,100.0%
41355072,MetroGistics LLC,False,TN,36.166687,-86.779932,nashville,1,1,True,(Other),mix mix,(Other),0,AL,30.694500,-88.043100,mobile,False,250,448,2680,valid,100.0%
41494843,Manus Road Auto Salvage,True,TN,35.775166,-86.331116,murfreesboro,3,3,True,(3 Pickup),"1998 ford ranger
 2003 chevrolet avalanche
 2003 chevrolet silverado 1500",(3 Pickup),0,AL,32.252150,-86.208627,montgomery,False,400,306,20,valid,100.0%
41486294,Carsarrive Network Inc.,True,TN,35.904504,-83.843877,knoxville,1,1,True,(Car),2007 land rover range rover 4wd 4dr hse silver,(Car),0,AL,33.603374,-86.494434,moody,False,210,255,953,valid,99.4%
41507034,MetroGistics LLC,True,TX,34.196696,-101.760902,plainview,1,1,True,(Car),2014 chevrolet cruze,(Car),0,AL,33.648641,-86.699286,birmingham,False,425,1043,2680,valid,100.0%
41375041,Reindeer Logistics Inc. (prev. Reindeer Au...,True,TX,30.500628,-97.630248,round rock,1,1,True,(Car),2013 land rover range rover sport 4wd 4dr hse,(Car),0,AL,30.604252,-87.858161,daphne,False,550,644,980,valid,99.4%
41502333,Donohoo Chevrolet LLC,True,TX,29.551355,-95.283498,pearland,1,1,True,(Pickup),2016 chevrolet silverado 1500,(Pickup),0,AL,34.407120,-85.704552,fort payne,False,350,779,28,valid,100.0%
41475843,Elite International Trucking LLC,True,TX,29.652842,-95.283357,houston,1,1,False,(Other),2004 rims rims,(Other),0,AL,31.365057,-85.316170,headland,False,325,678,259,valid,99.2%
41133928,Auto Transport 123,True,TX,30.002821,-95.394132,houston,1,1,True,(SUV),2006 chrysler pacifica,(SUV),0,AL,34.669181,-86.560310,huntsville,False,350,785,2306,valid,100.0%
41496344,Reindeer Logistics Inc. (prev. Reindeer Au...,True,TX,31.941518,-102.318372,odessa,1,1,True,(Car),2014 porsche cayenne awd 4dr,(Car),0,AL,34.813620,-86.503450,huntsville,False,700,1023,980,valid,99.4%
41435527,Emarat Shipping Inc 1,True,TX,29.682276,-95.257164,houston,1,1,True,(Other),2006 buckeye breeze lx 912,(Other),0,AL,33.855077,-85.775960,jacksonville,False,500,746,808,valid,99.2%
41424482,Southeast Auto Movers LLC,False,TX,32.780000,-96.800000,dallas,1,1,True,(Car),2000 honda civic,(Car),0,AL,30.666570,-88.266256,mobile,False,325,583,38,valid,97.4%
41427401,Superior Quality Inc,True,TX,29.832593,-95.648185,houston,1,1,True,(Car),1993 mazda rx-7,(Car),0,AL,32.491480,-85.031052,phenix city,False,350,738,693,valid,100.0%
41420369,Olympus Xclusive Transporters LLC,True,UT,40.756587,-111.901214,salt lake city,1,1,True,(SUV),2016 land rover range rover,(SUV),0,AL,30.694500,-88.043100,mobile,False,741,1914,66,valid,100.0%
41475920,"Mercury Auto Transport, Inc.",True,UT,40.756587,-111.901214,salt lake city,1,1,True,(SUV),2016 land rover range rover,(SUV),0,AL,30.665624,-88.103864,mobile,False,1000.44,1987,2713,valid,100.0%
41476815,BWT Group LLC,True,UT,40.756587,-111.901214,salt lake city,1,1,True,(SUV),2015 land rover range rover,(SUV),0,AL,30.665624,-88.103864,mobile,False,1000,1987,1036,valid,98.6%
41497148,Massrec LLC,True,UT,40.756587,-111.901214,salt lake city,1,1,True,(SUV),2016 land rover range rover,(SUV),0,AL,30.665624,-88.103864,mobile,False,700,1987,337,valid,99.4%
41450290,"Mercury Auto Transport, Inc.",True,VA,38.736614,-77.546642,bristow,1,1,True,(Other),"2002 john deer 4400.(small tractor,have pics and dim",(Other),0,AL,31.419842,-86.089185,elba,False,450.01,847,2713,valid,100.0%
41498930,Secure Auto Shipping Inc. 1,False,VA,39.192409,-77.625300,waterford,1,1,True,(Car),1963 mg midget,(Car),0,AL,34.673300,-86.752100,huntsville,False,350,679,2001,valid,100.0%
41494866,Nation Auto Transport LLC,True,VA,38.736614,-77.546642,bristow,1,1,True,(Other),2002 traktor .,(Other),0,AL,31.535729,-85.955565,jack,False,450,835,1360,valid,99.9%
41442672,Smart Talk Transport Inc,True,VA,39.192409,-77.625300,waterford,1,1,True,(Car),1963 mg midget,(Car),0,AL,34.897392,-86.709413,toney,False,350,683,386,valid,99.0%
41466680,Auto Transport 123,True,VT,44.279964,-72.609412,middlesex,1,1,True,(Pickup),2005 chevy colorado,(Pickup),0,AL,33.508460,-86.738661,birmingham,False,750,1258,2306,valid,100.0%
41366570,Acme Auto Shipping,True,WA,47.413900,-122.198090,kent,1,1,True,(Car),2016 volvo s60,(Car),0,AL,34.765786,-87.108167,athens,False,900,2562,1426,valid,100.0%
41396438,Allied Auto Shippers LLC,True,WA,47.295332,-122.622708,gig harbor,1,1,True,(SUV),2012 chevrolet equinox,(SUV),0,AL,33.456572,-86.860266,birmingham,False,1000,2674,477,valid,100.0%
41465426,RoadRunner Auto Transport,True,WA,47.259358,-122.396924,tacoma,1,1,True,(SUV),2006 jeep wrangler,(SUV),0,AL,31.146161,-85.412448,dothan,False,1000,2805,2591,valid,100.0%
41444227,Freedom Auto Transport LLC,True,WA,47.451974,-120.330783,west wenatchee,1,1,True,(Car),2002 bmw 330,(Car),0,AL,30.482441,-87.866974,fairhope,False,1300,2600,2111,valid,99.9%
41413239,Reindeer Logistics Inc. (prev. Reindeer Au...,True,WA,45.679855,-122.649732,vancouver,1,1,True,(Car),2015 hyundai genesis coupe 2dr 3.8l base seats,(Car),0,AL,32.467355,-86.359491,millbrook,False,1100,2676,980,valid,99.4%
41396935,Hat Creek Carriers,True,WA,47.261056,-122.510467,tacoma,1,1,True,(Other),2016 audi a3,(Other),0,AL,32.683322,-85.403409,opelika,False,800,2666,727,valid,87.8%
41175007,Freedom Auto Transport LLC,True,WA,47.128709,-122.522444,mc chord afb,1,1,False,(SUV),2005 chevrolet trailblazer,(SUV),0,AL,32.491480,-85.031052,phenix city,False,950,2755,2111,valid,99.9%
41489817,"Waukesha Imports, Llc",True,WI,43.029094,-88.213516,waukesha,1,1,True,(SUV),2017 porsche cayenne,(SUV),0,AL,30.665624,-88.103864,mobile,False,550,1031,89,valid,97.8%
41478022,"Les Mack Chevrolet-Buick,",True,WI,42.850716,-90.689558,Lancaster,1,1,True,(SUV),2016 buick enclave,(SUV),0,AL,33.603374,-86.494434,Moody,False,400,873,85,valid,100.0%
41506906,Carsarrive Network Inc.,True,WI,43.380904,-88.170840,west bend,1,1,True,(Car),2015 lincoln mkz mkz fwd tuxedo black met.,(Car),0,AL,34.772352,-87.554916,muscle shoals,False,500,735,953,valid,99.4%
41507183,MetroGistics LLC,True,AL,32.369423,-86.159596,montgomery,1,1,True,(Car),2013 chevrolet silverado 1500,(Car),0,AR,35.063958,-92.370596,conway,False,425,496,2680,valid,100.0%
41481059,LNR Services LLC,False,AR,35.888104,-90.638038,jonesboro,1,1,True,(Pickup),2016 nissan titan,(Pickup),0,AR,36.358326,-94.236067,bentonville,False,200,321,251,valid,100.0%
41506927,Plymale Auto Transport LLC,False,AR,35.543654,-93.885340,ozark,1,1,True,(Pickup),2005 gmc 2500,(Pickup),0,AR,34.752862,-92.274760,little rock,False,100,125,59,valid,93.2%
41481804,Elite Autos LLC,True,AR,35.779513,-90.742341,jonesboro,1,1,True,(Car),2006 ford gt,(Car),0,AR,36.180440,-94.035930,springdale,False,300,246,145,valid,100.0%
41489254,Maranatha Auto Carrier Inc.,True,AZ,32.076994,-110.898754,tucson,1,1,False,(Car),2009 mercedes-benz clk,(Car),0,AR,35.063958,-92.370596,conway,False,575,1289,162,valid,100.0%
41496618,Premium Auto Movers LLC,True,AZ,32.076994,-110.898754,tucson,1,1,True,(Car),2009 mercedes-benz clk 350,(Car),0,AR,35.063958,-92.370596,conway,False,500,1289,609,valid,100.0%
41498931,Nationwide Transport Services LLC,False,AZ,32.071354,-110.908940,tuscon,1,1,False,(Car),2009 mercedes-benz 350-class,(Car),0,AR,34.997197,-92.643809,conway,False,600,1294,3518,valid,100.0%
41500519,Massrec LLC,True,AZ,32.076994,-110.898754,tucson,1,1,True,(Other),2009 mercedes-benz clk 350,(Other),0,AR,35.063958,-92.370596,conway,False,500,1289,337,valid,99.4%
41425520,Capitol Auto Transport,True,AZ,32.401553,-110.953036,oro valley,1,1,True,(SUV),2015 ford escape,(SUV),0,AR,34.752862,-92.274760,little rock,False,680,1287,1421,valid,100.0%
41484713,"N.A.V.T. Inc,",True,AZ,33.432017,-112.012424,phoenix,1,1,True,(Pickup),2014 toyota tacoma,(Pickup),0,AR,34.907709,-92.137929,little rock air force base,False,650,1359,942,valid,99.9%
41478453,AAA Aero Auto Transport,False,AZ,33.334686,-111.742989,gilbert,1,1,True,(Car),2010 honda accord,(Car),0,AR,33.241951,-93.180758,magnolia,False,520,1296,187,valid,97.3%
41454877,Lone Star Car Broker/Lone Star Car Transpo...,True,AZ,32.071354,-110.908940,tuscon,1,1,True,(Pickup),2016 chevrolet silverado 2500,(Pickup),0,AR,35.218398,-90.183161,marion,False,800,1396,1417,valid,100.0%
41506633,Montway Inc.,True,CA,35.584744,-120.994319,cambria,1,1,True,(Car),1955 ford f truck (1948-86),(Car),0,AR,36.450596,-94.231850,bella vista,False,1000,1716,1697,valid,100.0%
41411919,Orange Auto Transport,True,CA,33.352930,-117.418744,camp pendleton,1,1,True,(Car),2015 nissan altima,(Car),0,AR,34.624280,-92.672405,benton,False,600,1707,1262,valid,100.0%
41448128,AmeriFreight,True,CA,37.369650,-122.024210,sunnyvale,1,1,True,(Car),2015 toyota corolla,(Car),0,AR,36.358326,-94.236067,bentonville,False,700,1814,1340,valid,99.6%
41496991,BWT Group LLC,True,CA,37.369650,-122.024210,sunnyvale,1,1,True,(Car),2014 toyota corolla,(Car),0,AR,36.358326,-94.236067,bentonville,False,800,1814,1036,valid,98.6%
41399221,Emarat Shipping Inc 1,True,CA,33.795232,-117.998295,stanton,1,1,True,(SUV),2006 hummer h1,(SUV),0,AR,35.779513,-90.742341,jonesboro,False,950,1764,808,valid,99.2%
41496081,Nationwide Auto Transport LLC,True,CA,37.653296,-121.459717,tracy,1,1,True,(Car),2010 chevrolet corvette,(Car),0,AR,35.842500,-90.704400,jonesboro,False,1500,2005,1049,valid,100.0%
41507207,J&P Motorsports Inc,False,CA,34.231612,-118.344504,sun valley,1,1,True,(Car),2013 lexus ls 460,(Car),0,AR,34.752862,-92.274760,little rock,False,600,1671,294,valid,98.6%
41447964,Q Auto Transport LLC,False,CA,33.703402,-116.229186,indio,1,1,True,(Car),2008 mercedes-benz 300-class,(Car),0,AR,34.752862,-92.274760,little rock,False,650,1571,1465,valid,100.0%
41439669,Dixon Worldwide Logistics Inc,True,CA,33.964032,-118.273705,los angeles,1,1,True,(Car),1985 chevrolet monte carlo,(Car),0,AR,33.241951,-93.180758,magnolia,False,650,1685,332,valid,97.7%
41480662,AutoStar Transport Express LLC (prev. Auto...,True,CA,33.814615,-117.824086,orange,1,1,True,(Car),1961 volkswagen beetle,(Car),0,AR,35.240318,-91.704914,searcy,False,600,1678,2602,valid,100.0%
41491775,"DIY Transport, Inc.",True,CA,34.609119,-117.818425,palmdale,1,1,True,(Car),1996 cadillac fleetwood,(Car),0,AR,36.180440,-94.035930,springdale,False,800,1506,1988,valid,100.0%
41279961,Stateway Auto Transportation,True,CA,32.724598,-116.993628,spring valley,1,1,True,(Car),1964 plymouth barracuda,(Car),0,AR,33.602303,-92.153597,warren,False,650,1662,2429,valid,98.9%
41480957,"DIY Transport, Inc.",True,CO,39.789772,-104.828404,denver,2,2,True,(2 Car),"2014 chevrloet cruz
 2014 chrysler 300",(2 Car),0,AR,34.796793,-92.515202,little rock,False,1000,961,1988,valid,100.0%
41498295,Carsarrive Network Inc.,True,CO,39.910660,-105.006741,thornton,2,2,True,(2 Car),"2014 gmc savana short wheel base
 2015 gmc savana short wheel base",(2 Car),0,AR,34.782052,-92.152820,north little rock,False,1300,974,953,valid,99.4%
41413113,Auto Transport 123,False,CT,41.782600,-72.661300,hartford,1,1,True,(SUV),2008 infiniti fx35,(SUV),0,AR,35.366736,-94.414673,fort smith,False,550,1512,2306,valid,100.0%
41495512,"Jay's Auto Transport, Inc.",True,FL,26.184090,-80.134724,fort lauderdale,1,1,True,(Car),2007 cadillac cts,(Car),0,AR,34.624280,-92.672405,benton,False,450,1151,931,valid,100.0%
41507704,Ready Auto Transport (RAT),True,FL,30.591293,-87.002077,milton,1,1,True,(Other),2015 hyundai sonata,(Other),0,AR,34.603058,-92.491436,bryant,False,435,527,1697,valid,99.9%
41506554,TD Auto Transportation LLC,True,FL,28.067196,-82.613677,tampa,1,1,True,(Car),1960 volkswagen beetle,(Car),0,AR,34.603058,-92.491436,bryant,False,500,996,161,valid,100.0%
41460299,Prestige Shipping Inc.,True,FL,30.456169,-81.537453,jacksonville,1,1,True,(SUV),2005 toyota highlander,(SUV),0,AR,35.063958,-92.370596,conway,False,500,846,53,valid,100.0%
41485770,Masafi Used Auto Spare Parts LLC,True,FL,30.344659,-81.734322,jacksonville,1,1,True,(Car),2012 kia forte,(Car),0,AR,35.063958,-92.370596,conway,False,350,826,209,valid,98.3%
41503004,Masafi Used Auto Spare Parts LLC,True,FL,30.344659,-81.734322,jacksonville,1,1,True,(Car),2013 kia forte,(Car),0,AR,35.063958,-92.370596,conway,False,350,826,209,valid,98.3%
41505168,Secure Auto Shipping Inc. 1,True,FL,30.456169,-81.537453,jacksonville,1,1,True,(SUV),2013 toyota highlander,(SUV),0,AR,35.047178,-92.486770,conway,False,400,848,2001,valid,100.0%
41420189,Stateway Auto Transportation,True,FL,27.788998,-82.728388,saint petersburg,1,1,True,(Pickup),1972 chevrolet c10,(Pickup),0,AR,35.802026,-92.579150,leslie,False,550,1085,2429,valid,98.9%
41374361,"DIY Transport, Inc.",True,FL,28.555472,-82.524481,brooksville,1,1,True,(SUV),1961 chrysler newport,(SUV),0,AR,33.592290,-91.739966,monticello,False,550,802,1988,valid,100.0%
41491619,Horizon Motors Inc,True,FL,28.570418,-81.535782,ocoee,1,1,True,(SUV),2012 toyota rav4,(SUV),0,AR,34.782052,-92.152820,north little rock,False,300,882,53,valid,100.0%
41497893,Bill Keen Trucking,True,FL,26.666420,-80.663373,Belle Glade,1,1,True,(SUV),2004 jeep liberty,(SUV),0,AR,36.068261,-90.520307,Paragould,False,500,1055,296,valid,100.0%
41483037,"Hanover Transport, Inc",True,FL,30.454597,-87.258345,pensacola,1,1,True,(SUV),2017 cadillac escalade,(SUV),0,AR,35.240318,-91.704914,searcy,False,500,541,1504,valid,100.0%
41412322,TAT services,True,FL,28.386921,-81.357284,orlando,1,1,True,(Car),1979 volkswagen beetle,(Car),0,AR,33.462776,-93.883159,texarkana,False,400,991,1,valid,100.0%
41504896,United Auto Transport,True,GA,34.313648,-83.810556,gainesville,2,2,True,"(Car, Pickup)","1949 chevrolet coupe
 2003 gmc sierra","(Car, Pickup)",0,AR,35.063958,-92.370596,conway,False,650,601,1187,valid,99.6%
41503640,Autos On The Go LLC,True,GA,34.005912,-84.470780,marietta,1,1,True,(Van),2007 ford econoline wagon,(Van),0,AR,34.673660,-92.369697,little rock,False,400,539,1161,valid,99.8%
41478499,Stateway Auto Transportation,True,GA,34.515587,-85.285974,summerville,1,1,True,(Car),1999 ford windstar,(Car),0,AR,34.673660,-92.369697,little rock,False,280,454,2429,valid,98.9%
41494363,Auto Transport 123,False,GA,32.111429,-81.254363,pooler,1,1,True,(Car),1974 chevrolet caprice,(Car),0,AR,34.280294,-92.121521,white hall,False,375,793,2306,valid,100.0%
41504086,Cousins Logistics Inc.,True,IA,41.439188,-94.777194,anita,1,1,True,(Other),2014 caterpillar skid steer,(Other),0,AR,35.779513,-90.742341,jonesboro,False,525,567,20,valid,100.0%
41500957,BWT Group LLC,True,IA,41.023160,-95.218402,red oak,1,1,True,(Pickup),2009 chevrolet silverado 3500hd,(Pickup),0,AR,34.798828,-91.907652,lonoke,False,500,608,1036,valid,98.6%
41471913,Massrec LLC,True,IL,42.342906,-88.112125,round lake,1,1,True,(Motorcycle),2015 spyder trike,(Motorcycle),0,AR,36.294829,-91.575750,cherokee vlg,False,400,571,337,valid,99.4%
41059614,"C Auto Transport, Inc",True,IL,41.931285,-88.007188,addison,1,1,True,(Car),2000 bmw m convt top load & straps only,(Car),0,AR,35.198376,-94.194922,greenwood,False,375,723,418,valid,100.0%
41499421,"National Auto Shipping,Inc",True,IL,41.483067,-90.484822,moline,1,1,True,(Car),2007 audi a4,(Car),0,AR,34.341836,-92.905749,malvern,False,300,655,1487,valid,99.9%
41500449,Bros Auto,True,IL,41.961771,-87.944858,bensenville,1,1,True,(Motorcycle),2005 suzuki vl800,(Motorcycle),0,AR,35.909708,-94.310825,prairie grove,False,200,671,305,valid,100.0%
41493713,Carsarrive Network Inc.,True,IL,40.773950,-89.638145,peoria,1,1,True,(Car),2000 honda civic ex,(Car),0,AR,36.302142,-94.121411,rogers,False,460,491,953,valid,99.4%
41459304,Professional Trans Svcs LLC/PTS Auto Carri...,True,IN,39.318010,-85.479184,greensburg,1,1,False,(Pickup),2005 dodge ram pickup 2500,(Pickup),0,AR,34.782052,-92.152820,north little rock,False,350,608,1161,valid,99.9%
41430532,South Beach Transport,True,IN,41.359660,-86.310828,plymouth,1,1,True,(Pickup),2010 ford f-450 utility truck,(Pickup),0,AR,35.275751,-93.684532,paris,False,450,740,1954,valid,99.9%
41480746,Heartland Auto Shippers,True,KS,39.171248,-96.547604,manhattan,1,1,True,(Pickup),1986 chevy pickup - short bed,(Pickup),0,AR,34.744879,-92.346546,little rock,False,300,542,406,valid,100.0%
41507456,BAMA Auto Movers Inc,True,LA,29.598949,-90.822026,houma,1,1,True,(SUV),2016 ford explorer xlt,(SUV),0,AR,35.558598,-93.435684,clarksville,False,450,550,634,valid,98.7%
41507591,Ready Auto Transport (RAT),True,LA,31.278806,-92.532920,alexandria,1,1,True,(Other),2016 chevrolet malibu,(Other),0,AR,35.301684,-94.406618,fort smith,False,285,395,1697,valid,99.9%
41495818,Mode Transportation LLC (prev. Exel Transp...,True,LA,32.530914,-92.105505,monroe,9,1,True,(9 Other),(9) mixed units,(9 Other),0,AR,34.746722,-92.280058,little rock,False,0,175,82,valid,100.0%
41495817,Mode Transportation LLC (prev. Exel Transp...,True,LA,32.494027,-92.647467,ruston,9,1,True,(9 Other),(9) mixed units,(9 Other),0,AR,34.746722,-92.280058,little rock,False,0,174,82,valid,100.0%
41360363,Elite Auto Hauling Services LLC,False,MD,39.295824,-76.607773,baltimore,1,1,True,(Car),2006 honda accord,(Car),0,AR,35.944537,-94.091378,fayetteville,False,300,1226,142,valid,100.0%
41456276,Auto Life LLC,True,MD,39.095536,-76.802100,Laurel,1,1,True,(SUV),2012 ford explorer,(SUV),0,AR,34.782052,-92.152820,North Little Rock,False,350,1027,16,valid,100.0%
41490791,AutoGo Transport,True,MI,42.462728,-83.403556,farmington,1,1,True,(SUV),2015 nissan rogue,(SUV),0,AR,36.358326,-94.236067,bentonville,False,550,897,445,valid,100.0%
41465156,Express Automotive,True,MI,42.556121,-83.117606,troy,1,1,True,(Car),2005 ford crown victoria,(Car),0,AR,35.063958,-92.370596,conway,False,450,911,52,valid,100.0%
41485826,Chase Auto Sales Inc,True,MI,42.367841,-83.138984,detroit,1,1,False,(SUV),2013 hyundai santa fe sport,(SUV),0,AR,35.063958,-92.370596,conway,False,400,923,205,valid,98.5%
41500081,Midwest Auto Movers Inc.,False,MN,45.013588,-93.022687,saint paul,1,1,True,(SUV),2015 toyota highlander,(SUV),0,AR,35.016670,-93.467164,danville,False,450,824,335,valid,100.0%
41479344,R.L. Brookdale Motors Inc.,True,MN,45.063892,-93.340708,Brooklyn Center,1,1,True,(SUV),2013 honda cr-v,(SUV),0,AR,36.302142,-94.121411,Rogers,False,425,663,87,valid,100.0%
41383105,PRA Location Services LLC,True,MO,37.171008,-93.331857,springfield,1,1,False,(Heavy Equipment),2003 propane tank,(Heavy Equipment),0,AR,36.288822,-93.558175,berryville,False,250,77,580,valid,100.0%
41498107,BWT Group LLC,True,MO,39.072493,-94.449825,independence,1,1,True,(SUV),2007 jeep liberty,(SUV),0,AR,35.063958,-92.370596,conway,False,250,401,1036,valid,98.6%
41499995,Polecats Auto Sales,True,MO,36.563932,-90.006726,malden,1,1,False,(Pickup),2014 gmc at copart sierra .forklift will load,(Pickup),0,AR,35.063958,-92.370596,conway,False,175,215,11,valid,100.0%
41494940,MetroGistics LLC,True,MO,38.792465,-90.387003,hazelwood,1,1,True,(Car),2016 nissan juke,(Car),0,AR,35.301684,-94.406618,fort smith,False,275,426,2680,valid,100.0%
41507874,Ready Auto Transport (RAT),True,MO,39.160716,-94.449162,kansas city,1,1,True,(Other),2016 ford f-150,(Other),0,AR,34.477713,-93.060354,hot springs,False,210,429,1697,valid,99.9%
41493255,J and K Xpress LLC,True,MO,37.747435,-90.363484,farmington,1,1,True,(Pickup),2012 dodge ram pickup 3500,(Pickup),0,AR,34.782052,-92.152820,north little rock,False,200,283,7,valid,100.0%
41404913,PRA Location Services LLC,True,MO,39.104106,-94.599688,kansas city,5,1,True,(5 Motorcycle),(5) 2015 harley motorcycle,(5 Motorcycle),0,AR,34.228600,-92.003400,pine bluff,False,750,467,580,valid,100.0%
41478998,US Transport LLC (prev. All Road Transport...,True,MO,37.220780,-93.328184,Springfield,1,1,True,(ATV),2011 yamaha yfm450,(ATV),0,AR,35.909708,-94.310825,Prairie Grove,False,80,159,49,valid,100.0%
41507553,Ready Auto Transport (RAT),True,MO,39.160716,-94.449162,kansas city,1,1,False,(Other),2014 nissan rogue,(Other),0,AR,33.462776,-93.883159,texarkana,False,505,480,1697,valid,99.9%
41476890,Eagle Auto Shipping LLC,False,MS,30.390990,-89.072912,gulfport,1,1,True,(Car),2006 bmw z4,(Car),0,AR,34.752862,-92.274760,little rock,False,350,421,177,valid,100.0%
41418790,Integrity Hot Shot Services LLC,False,MS,32.299758,-88.605536,meridian,1,1,True,(Pickup),2015 chevrolet silverado 1500,(Pickup),0,AR,34.862469,-92.404514,north little rock,False,275,381,599,valid,100.0%
41304196,BWT Group LLC,True,MT,46.857761,-114.015020,missoula,1,1,True,(SUV),2007 nissan xterra,(SUV),0,AR,34.477713,-93.060354,hot springs,False,600,1831,1036,valid,98.6%
41496453,MetroGistics LLC,True,NC,35.123281,-80.933955,charlotte,1,1,True,(Car),2015 chevrolet tahoe,(Car),0,AR,34.752862,-92.274760,little rock,False,475,756,2680,valid,100.0%
41507831,Ready Auto Transport (RAT),True,NE,41.158714,-96.138182,omaha,1,1,False,(Other),2014 chevrolet traverse,(Other),0,AR,35.274120,-94.373690,fort smith,False,435,493,1697,valid,99.9%
41499910,V&S Brothers Inc,True,NJ,40.697442,-74.166362,newark,1,1,False,(ATV),2016 polaris sport  584816,(ATV),0,AR,35.063958,-92.370596,conway,False,450,1251,811,valid,99.8%
41500162,Overseas Container Shipping Inc,True,NJ,40.624754,-74.249144,linden,1,1,True,(Car),1964 cadillac deville,(Car),0,AR,35.063958,-92.370596,conway,False,550,1268,315,valid,100.0%
41500831,Top Auto Logistics LLC,True,NM,35.069280,-106.577461,albuquerque,1,1,True,(Car),1963 rambler american,(Car),0,AR,34.313903,-93.196745,bismarck,False,450,864,62,valid,100.0%
41174622,Auto Transport 123,True,NV,35.990387,-115.211564,las vegas,1,1,True,(Car),2005 honda crv,(Car),0,AR,36.458838,-94.120812,pea ridge,False,625,1350,2306,valid,100.0%
41505566,Reindeer Logistics Inc. (prev. Reindeer Au...,True,NV,36.078400,-115.211930,las vegas,1,1,False,(Car),1961 volkswagen beetle,(Car),0,AR,36.187614,-94.239698,springdale,False,750,1323,980,valid,99.4%
41470791,CMR Global Logistics Inc.,True,NY,40.688784,-73.374758,lindenhurst,1,1,True,(Car),1931 ford model a,(Car),0,AR,35.888104,-90.638038,jonesboro,False,800,1183,374,valid,98.4%
41476710,New Way Moving Services,True,NY,40.885427,-73.164651,saint james,1,1,True,(Car),2013 bmw 135,(Car),0,AR,34.805287,-92.244662,north little rock,False,400,1290,1318,valid,97.7%
41496653,Carter Trucking Broker,False,OK,36.102251,-96.033974,tulsa,3,2,True,(3 Pickup),"(2) 2016 chevy 2500 reg. cab w/ser. body
 2016 chevy 3500 crew cab w/ 9' flat bed",(3 Pickup),0,AR,34.752862,-92.274760,little rock,False,600,280,963,valid,99.8%
41395137,Reindeer Logistics Inc. (prev. Reindeer Au...,True,PA,41.458054,-75.730478,clarks summit,1,1,True,(Car),2010 ford edge 4dr limited awd,(Car),0,AR,35.063958,-92.370596,conway,False,625,1213,980,valid,99.4%
41480861,BWT Group LLC,True,PA,40.319659,-75.512818,perkiomenville,1,1,True,(Car),1995 porsche 928,(Car),0,AR,33.462776,-93.883159,texarkana,False,750,1299,1036,valid,98.6%
41504054,BWT Group LLC,True,SC,33.571150,-80.891585,orangeburg,1,1,True,(Car),2015 mercedes-benz 300c,(Car),0,AR,34.796793,-92.515202,little rock,False,375,761,1036,valid,98.6%
41507489,Nashville Auto Sales of Murfreesboro Rd In...,True,TN,36.139207,-86.732385,nashville,1,1,True,(SUV),2013 gmc terrain,(SUV),0,AR,35.063958,-92.370596,conway,False,220,378,115,valid,99.1%
41492522,United Road Logistics LLC,True,TN,36.175305,-86.490896,mount juliet,1,0,False,(Car),2012 toyota corolla,(Car),0,AR,35.575604,-90.714299,harrisburg,False,250,288,1165,valid,98.8%
41468309,Carsarrive Network Inc.,True,TN,35.222170,-89.922165,memphis,1,1,True,(Car),2015 chrysler 200 - release attached,(Car),0,AR,34.752862,-92.274760,little rock,False,110,147,953,valid,99.4%
41484062,Silver Star Logistics LLC,False,TN,35.149700,-90.048700,memphis,1,1,True,(Car),2008 mercedes-benz mlk 350,(Car),0,AR,34.752862,-92.274760,little rock,False,150,137,65,valid,100.0%
41467690,Secure Auto Shipping Inc. 1,True,TN,36.186202,-82.311707,unicoi,1,1,True,(Motorcycle),2013 bmw r1200rt,(Motorcycle),0,AR,36.331388,-92.406648,mountain home,False,250,676,2001,valid,100.0%
41480825,Ship Your Car For Less Inc,False,TN,36.186202,-82.311707,unicoi,1,1,True,(Motorcycle),2013 bmw r1200rt,(Motorcycle),0,AR,36.331388,-92.406648,mountain home,False,300,676,10,valid,100.0%
41501230,Americar of Rivergate Inc,True,TN,36.255363,-86.698270,madison,1,1,True,(SUV),2015 jeep grand cherokee,(SUV),0,AR,34.782052,-92.152820,north little rock,False,175,352,236,valid,99.2%
41323398,"All Star Direct Auto Shipping, LLC (prev. ...",False,TX,35.770008,-101.291614,borger,1,1,True,(Pickup),2003 dodge ram 1500,(Pickup),0,AR,33.565400,-92.254464,banks,False,275,669,829,valid,100.0%
41492853,Hont Global Services Inc.,True,TX,29.641130,-95.426167,houston,1,1,True,(Car),2014 volkswagen jetta,(Car),0,AR,35.063958,-92.370596,conway,False,200,476,141,valid,99.3%
41492854,Hont Global Services Inc.,True,TX,29.641130,-95.426167,houston,1,1,True,(SUV),2009 nissan pathfinder,(SUV),0,AR,35.063958,-92.370596,conway,False,200,476,141,valid,99.3%
41506950,United Road Logistics LLC,True,TX,32.683676,-96.938141,dallas,1,1,True,(Car),2012 chevrolet impala,(Car),0,AR,34.434587,-92.884961,jones mill,False,175,296,1165,valid,98.8%
41500217,USA Auto Logistics Inc.,False,TX,31.794709,-106.376550,el paso,1,1,False,(Car),2011 chevrolet cruze,(Car),0,AR,34.752862,-92.274760,little rock,False,400,975,422,valid,98.6%
41506439,D Mosley Group LLC,False,TX,29.765500,-95.359200,houston,1,1,True,(Car),2016 lexus gs f,(Car),0,AR,34.752862,-92.274760,little rock,False,300,441,143,valid,96.5%
39982091,Nytti Corp,True,TX,33.003921,-96.895926,carrollton,1,1,True,(Motorcycle),2013 yamaha wr250,(Motorcycle),0,AR,34.782052,-92.152820,north little rock,False,100,342,270,valid,100.0%
41478915,"Sims Waters & Associates, Inc",True,TX,29.306824,-94.771914,galveston,1,1,True,(SUV),2006 toyota rav4,(SUV),0,AR,35.909708,-94.310825,prairie grove,False,450,623,225,valid,100.0%
41508005,Buju Motors,True,TX,32.912946,-96.677136,garland,1,1,True,(SUV),2013 toyota highlander,(SUV),0,AR,34.690957,-92.068473,scott,False,200,328,0,valid,[N/A]
41500632,Westway Auto Transport (prev. Mares Vehicl...,True,TX,29.829969,-95.376418,houston,1,1,False,(Car),2016 chevy malibu,(Car),0,AR,34.690957,-92.068473,scott,False,250,445,267,valid,98.5%
41326336,Top Line Service Inc/ Topline Logistics,False,TX,29.306824,-94.771914,galveston,2,2,True,(2 Pickup),(2) 2008 nissan frontier,(2 Pickup),0,AR,35.240318,-91.704914,searcy,False,800,541,633,valid,99.7%
41507667,Ready Auto Transport (RAT),True,TX,32.816483,-97.107439,euless,1,1,True,(Other),2014 ford f-450 super duty,(Other),0,AR,35.464129,-94.340980,van buren,False,235,295,1697,valid,99.9%
41478618,Ship A Car Inc.,True,UT,40.507525,-111.699774,alpine,1,1,True,(Car),1965 plymouth barracuda,(Car),0,AR,35.944537,-94.091378,fayetteville,False,750,1365,2172,valid,100.0%
41468631,"DIY Transport, Inc.",True,VA,37.065054,-76.528166,newport news,1,1,True,(Car),2008 pontiac grand prix,(Car),0,AR,34.534538,-92.621910,benton,False,450,1060,1988,valid,100.0%
41427166,Reindeer Logistics Inc. (prev. Reindeer Au...,True,WA,47.504128,-122.109663,newcastle,1,1,True,(Car),2011 toyota sienna 5dr 7-pass van i4 fwd (gs),(Car),0,AR,36.358326,-94.236067,bentonville,False,900,2110,980,valid,99.4%
41372060,Auto Transport 123,False,WA,47.750280,-122.204651,bothell,1,1,True,(Motorcycle),2009 yamaha 500,(Motorcycle),0,AR,34.752862,-92.274760,little rock,False,625,2293,2306,valid,100.0%
41483235,Carsarrive Network Inc.,True,WA,47.165782,-122.503179,lakewood,1,1,True,(Car),2001 chevrolet avalanche ref 46662290,(Car),0,AR,34.843360,-92.324612,n little rock,False,800,2285,953,valid,99.4%
41404733,State 2 State Auto Transport,True,AL,34.804218,-86.592350,huntsville,1,1,True,(Car),2006 vw beetle,(Car),0,AZ,33.370003,-112.035334,phoenix,False,545,1647,1263,valid,100.0%
41478366,Dixon Worldwide Logistics Inc 2,True,AL,33.490064,-85.904183,munford,1,1,True,(Car),2003 bmw 330,(Car),0,AZ,33.509472,-112.142906,phoenix,False,400,1774,2,valid,100.0%
41443675,Dixon Worldwide Logistics Inc,True,AL,34.514366,-85.829862,rainsville,1,1,False,(Car),2001 saturn l-series,(Car),0,AZ,33.442828,-112.986996,tonopah,False,775,1794,332,valid,97.7%
41464618,All Points Auto Transport LP,True,AL,34.645902,-86.752326,huntsville,2,2,True,"(Car, SUV)","1964 ford mustang
 2014 infiniti qx60","(Car, SUV)",0,AZ,32.196131,-111.005014,tucson,False,2000,1610,220,valid,98.6%
41143246,Safeway Car Transport LLC,True,AR,36.118166,-94.059994,fayetteville,1,1,True,(Car),2010 ford focus,(Car),0,AZ,33.432721,-111.848279,mesa,False,500,1165,865,valid,99.7%
41438012,Vehicle Relocation Specialists Inc,True,AR,34.894327,-92.238748,sherwood,1,1,True,(Car),2008 volvo c70,(Car),0,AZ,32.213772,-110.823808,tucson,False,600,1280,138,valid,100.0%
41488902,Enterprise Fleet Management,True,AZ,33.407150,-112.025909,phoenix,1,1,True,(Van),2017 chevrolet express cargo van,(Van),0,AZ,31.486183,-109.420268,douglas,False,150,242,112,valid,98.2%
41493376,MetroGistics LLC,True,AZ,33.610962,-111.890114,scottsdale,1,1,True,(Car),2011 infiniti qx56,(Car),0,AZ,33.279298,-111.737812,gilbert,False,40,35,2680,valid,100.0%
41427886,Freedom Auto Transport LLC,False,AZ,31.464272,-110.994375,nogales,1,1,True,(Other),2000 terex tr100 3 units total,(Other),0,AZ,35.372508,-113.952784,kingman,False,0,369,2111,valid,99.9%
41501386,United Road Logistics LLC,True,AZ,33.266332,-111.943009,chandler,1,1,True,(Car),2010 hyundai accent,(Car),0,AZ,33.075263,-112.032976,maricopa,False,30,16,1165,valid,98.8%
41507035,MetroGistics LLC,True,AZ,33.651723,-112.246213,peoria,1,1,True,(Car),2012 audi q5,(Car),0,AZ,33.397390,-111.719192,mesa,False,40,51,2680,valid,100.0%
41496691,Carsarrive Network Inc.,True,AZ,33.421242,-112.272442,tolleson,1,1,True,(Car),2015 toyota corolla none,(Car),0,AZ,31.586057,-110.172918,sierra vista,False,120,200,953,valid,99.4%
41507821,Ready Auto Transport (RAT),True,AZ,35.263738,-111.191755,flagstaff,1,1,True,(Other),2008 mitsubishi endeavor,(Other),0,AZ,33.421242,-112.272442,tolleson,False,120,159,1697,valid,99.9%
41491841,MetroGistics LLC,True,AZ,33.358686,-112.328317,avondale,1,1,True,(Car),2016 honda pilot,(Car),0,AZ,32.269386,-111.004044,tucson,False,70,133,2680,valid,100.0%
41497417,Montway Inc.,True,AZ,33.191536,-111.621333,queen creek,1,1,False,(Pickup),1971 chevy 1/2 ton pickups,(Pickup),0,AZ,32.298749,-110.840616,tucson,False,100,92,1697,valid,100.0%
41278210,BWT Group LLC,True,AZ,34.525073,-111.856111,camp verde,1,1,False,(Pickup),1958 ford f-100,(Pickup),0,AZ,32.217872,-110.968616,tucson,False,175,207,1036,valid,98.6%
41499590,Upbeat Express Inc.,False,CA,33.841658,-118.007763,buena park,1,1,True,(Car),2015 chevrolet camaro,(Car),0,AZ,32.342150,-112.754086,ajo,False,300,413,1014,valid,100.0%
41499347,Regal Auto Transport,True,CA,33.777769,-118.203827,long beach,1,1,True,(SUV),2015 gmc terrain,(SUV),0,AZ,33.227904,-111.869248,chandler,False,175,405,1531,valid,99.9%
41488515,Rio Vista Chevrolet,False,CA,34.650996,-120.222787,buellton,1,1,True,(SUV),2016 chevrolet tahoe,(SUV),0,AZ,33.326048,-111.824420,chandler,False,250,537,43,valid,100.0%
41507422,"FM Shipping & Auto, Inc (prev. FM Shipping...",True,CA,33.851170,-117.788377,anaheim,2,2,True,"(Pickup, SUV)","1986 gmc sierra 2500
 2005 ford excursion","(Pickup, SUV)",0,AZ,35.474926,-111.700018,flagstaff,False,400,483,373,valid,99.2%
41470878,Dynamic Auto Movers LLC,True,CA,33.195900,-117.378900,oceanside,1,1,True,(Car),2002 mercedes-benz c 230,(Car),0,AZ,35.009572,-114.581531,fort mohave,False,100,308,1229,valid,100.0%
41504555,Budget Auto Shipping,False,CA,33.762854,-118.199285,long beach,1,1,True,(Car),2008 nissan altima,(Car),0,AZ,33.334686,-111.742989,gilbert,False,175,406,976,valid,99.8%
41381458,Central Valley Trans,True,CA,34.077968,-117.587449,Ontario,1,1,True,(Car),2014 ford flex,(Car),0,AZ,31.833498,-111.002604,Green Valley,False,150,476,459,valid,98.9%
41491430,Motor City Sales Service,True,CA,35.156362,-119.046687,bakersfield,1,1,True,(Pickup),2006 ford f250,(Pickup),0,AZ,34.475370,-114.340188,lake havasu city,False,300,320,165,valid,100.0%
41473754,Southeast Auto Movers LLC,False,CA,33.835500,-117.913600,anaheim,1,1,True,(Car),1957 chevrolet bel air,(Car),0,AZ,34.475370,-114.340188,lake havasu city,False,200,293,38,valid,97.4%
41473789,Initial Logistics LLC,True,CA,34.146127,-117.459940,fontana,1,1,False,(Pickup),2003 chevrolet silverado 1500,(Pickup),0,AZ,34.475370,-114.340188,lake havasu city,False,225,251,1297,valid,99.9%
41453686,Coastal Auto Shipping LLC,True,CA,33.777769,-118.203827,long beach,1,1,True,(SUV),2017 chevrolet traverse,(SUV),0,AZ,33.449836,-111.767694,mesa,False,225,398,299,valid,100.0%
41499297,Coastal Auto Shipping LLC,False,CA,33.762854,-118.199285,long beach,1,1,True,(Pickup),2008 chevrolet avalanche,(Pickup),0,AZ,33.432721,-111.848279,mesa,False,250,395,299,valid,100.0%
41386611,Hat Creek Carriers,True,CA,37.419156,-122.075413,mountain view,1,1,True,(Car),2015 volkswagen gti,(Car),0,AZ,33.397254,-111.785840,mesa,False,350,743,727,valid,87.8%
41418594,Car Delivery USA Inc,True,CA,34.278500,-119.292500,ventura,1,1,True,(Boat),1973 carri-craft twin hall power boat,(Boat),0,AZ,36.803584,-111.203916,page,False,4200,622,2017,valid,99.6%
41505082,MetroGistics LLC,True,CA,33.793544,-118.114442,long beach,1,1,True,(Car),2016 chevrolet silverado 1500,(Car),0,AZ,33.651723,-112.246213,peoria,False,125,375,2680,valid,100.0%
41488252,Great American Transport,False,CA,33.994062,-118.152349,los angeles,1,1,False,(Car),1985 mercedes-benz sl-class,(Car),0,AZ,33.448446,-111.973861,phoenix,False,200,376,615,valid,97.3%
41490856,Isy1 LLC,True,CA,34.065164,-118.084194,rosemead,1,1,True,(Car),2015 chevrolet corvette,(Car),0,AZ,33.625572,-112.054559,phoenix,False,250,376,881,valid,100.0%
41491667,MetroGistics LLC,True,CA,33.875896,-117.993701,buena park,1,1,True,(Car),2014 honda cr-v,(Car),0,AZ,33.631186,-112.093201,phoenix,False,125,371,2680,valid,100.0%
41497325,MetroGistics LLC,True,CA,33.876760,-118.286071,gardena,3,3,True,(3 Car),"2006 buick rendezvous
 2009 ford escape
 2011 hyundai santa fe",(3 Car),0,AZ,33.631186,-112.093201,phoenix,False,270,388,2680,valid,100.0%
41500843,Coastal Auto Shipping LLC,False,CA,33.762854,-118.199285,long beach,1,1,True,(Car),2007 mazda miata mx-5,(Car),0,AZ,33.448446,-111.973861,phoenix,False,175,386,299,valid,100.0%
41504579,Metti International,True,CA,34.171524,-118.321512,burbank,1,1,True,(Pickup),1983 jeep truck,(Pickup),0,AZ,33.428058,-112.186166,phoenix,False,300,377,329,valid,100.0%
41505474,Rite Way Auto Transport  LLC,True,CA,33.923248,-118.057571,santa fe springs,1,1,True,(Other),1995 chevrolet step van,(Other),0,AZ,33.428058,-112.186166,phoenix,False,500,362,2085,valid,99.6%
41504913,Car Trackers,True,CA,33.881971,-117.850575,placentia,1,1,True,(Pickup),2009 toyota tacoma,(Pickup),0,AZ,33.341662,-111.992412,phoenix,False,175,367,185,valid,98.6%
41506344,DBest Transport Corp,True,CA,33.899133,-118.165187,paramount,1,1,False,(Motorcycle),1974 jawa 350,(Motorcycle),0,AZ,33.678258,-112.099816,phoenix,False,100,395,431,valid,100.0%
41507257,MetroGistics LLC,True,CA,33.876760,-118.286071,gardena,8,8,True,(8 Car),"2005 chevrolet trailblazer
 2006 nissan frontier
 2007 honda civic sdn
 2007 honda cr-v
 2007 mini cooper hardtop
 2007 toyota corolla
 2008 chevrolet cobalt
 2009 ford taurus",(8 Car),0,AZ,33.631186,-112.093201,phoenix,False,720,388,2680,valid,100.0%
41507256,MetroGistics LLC,True,CA,33.876760,-118.286071,gardena,8,8,True,(8 Car),"2001 ford taurus
 2004 ford f-150
 2004 volkswagen touareg
 2005 gmc sierra 1500
 2006 honda accord sdn
 2006 pontiac g6
 2007 ford escape
 2010 ford mustang",(8 Car),0,AZ,33.631186,-112.093201,phoenix,False,720,388,2680,valid,100.0%
41506298,Gold Farms Inc,True,CA,38.684442,-121.225163,orangevale,1,1,True,(Pickup),2010 dodge ram pickup 1500,(Pickup),0,AZ,33.428058,-112.186166,phoenix,False,350,770,21,valid,95.2%
41506454,Sk Motors LLC,True,CA,37.509776,-121.638874,livermore,1,1,True,(Car),2012 porsche 911,(Car),0,AZ,33.674517,-111.955801,phoenix,False,700,744,129,valid,99.2%
41444108,Auto Transport 123,True,CA,37.006763,-121.878693,aptos,1,1,True,(Van),1990 volkswagen transporter 2.5 tdi crew bus,(Van),0,AZ,33.746387,-111.679598,rio verde,False,800,754,2306,valid,100.0%
41505221,LG Exotic Auto Trans/LG Exotic Auto Trans ...,False,CA,34.052107,-118.385271,los angeles,1,1,True,(Car),2015 lamborghini gallardo,(Car),0,AZ,33.494096,-111.922881,scottsdale,False,500,392,255,valid,100.0%
41479630,Patriot Auto Transport LLC,True,CA,38.014874,-121.911466,pittsburg,1,1,True,(Car),2006 bmw 330,(Car),0,AZ,33.610962,-111.890114,scottsdale,False,275,761,833,valid,98.2%
41500749,A&M Trust Co,True,CA,37.268102,-122.027252,saratoga,1,1,True,(Car),2017 dodge viper,(Car),0,AZ,33.610962,-111.890114,scottsdale,False,350,742,33,valid,100.0%
41505001,Car Trackers,True,CA,33.923248,-118.057571,santa fe springs,1,1,True,(SUV),2002 lexus rx 300,(SUV),0,AZ,33.435698,-111.927836,tempe,False,175,374,185,valid,98.6%
41507442,Skytouch Imports,True,CA,33.870302,-117.925620,Fullerton,1,1,True,(Pickup),2014 toyota tundra 2wd truck,(Pickup),0,AZ,33.421242,-112.272442,Tolleson,False,150,347,48,valid,100.0%
41507002,United Road Logistics LLC,True,CA,37.721914,-121.043680,modesto,1,1,True,(SUV),2016 toyota highlander,(SUV),0,AZ,33.421242,-112.272442,tolleson,False,285,687,1165,valid,98.8%
41490135,J & M Motorsports Llc,True,CA,37.419156,-122.075413,mountain view,1,1,True,(SUV),2016 ford escape,(SUV),0,AZ,33.421242,-112.272442,tolleson,False,250,713,66,valid,100.0%
41502805,Fleet Express Auto Transport LLC,True,CA,34.419120,-119.703421,santa barbara,1,1,False,(SUV),1973 chevrolet blazer,(SUV),0,AZ,33.421242,-112.272442,tolleson,False,250,459,565,valid,99.6%
41493899,MetroGistics LLC,True,CA,39.937912,-122.262277,corning,1,1,True,(Car),2014 chevrolet silverado 3500hd,(Car),0,AZ,32.269386,-111.004044,tucson,False,750,979,2680,valid,100.0%
41397740,Coastal Auto Shipping LLC,False,CA,33.762854,-118.199285,long beach,1,1,True,(Car),2002 honda civic,(Car),0,AZ,32.098451,-110.730798,tucson,False,250,517,299,valid,100.0%
41463593,Reindeer Logistics Inc. (prev. Reindeer Au...,True,CA,34.483586,-118.060418,palmdale,1,1,True,(Car),2013 honda accord sdn 4dr i4 cvt ex,(Car),0,AZ,32.214174,-110.883826,tucson,False,400,501,980,valid,99.4%
41506863,My Auto Wrecking,True,CA,34.141507,-117.957065,duarte,1,1,False,(Pickup),2007 chevrolet silverado 2500,(Pickup),0,AZ,32.170204,-110.952223,tucson,False,250,477,33,valid,100.0%
41490553,Navy Auto Transport LLC,True,CA,33.252431,-117.286027,oceanside,1,1,True,(Car),2002 chrysler pt cruiser,(Car),0,AZ,32.269386,-111.004044,tucson,False,200,440,701,valid,99.9%
41429976,Reindeer Logistics Inc. (prev. Reindeer Au...,True,CO,38.889456,-104.700522,colorado springs,1,1,True,(Car),2007 hyundai santa fe awd 4dr auto,(Car),0,AZ,33.324126,-111.876872,chandler,False,475,822,980,valid,99.4%
41385771,Fidelity Auto Shipping,True,CO,39.847134,-105.421941,golden,1,1,True,(Car),2004 honda civic,(Car),0,AZ,33.458894,-111.926374,scottsdale,False,400,819,1296,valid,99.9%
41460927,"ESAF ENTERPRISE, LLC.",True,CO,39.183388,-108.594823,Grand Junction,1,1,True,(SUV),2015 jeep grand cherokee,(SUV),0,AZ,33.458894,-111.926374,Scottsdale,False,350,592,1,valid,100.0%
41325615,Acme Auto Shipping,True,CO,39.957005,-105.157764,louisville,1,1,True,(Car),2012 hyundai sonata,(Car),0,AZ,32.248016,-110.947413,tucson,False,450,917,1426,valid,100.0%
41506674,Tze LLC,True,CO,39.770568,-105.048645,Denver,1,1,True,(Car),2001 audi s4,(Car),0,AZ,31.984346,-110.685376,Vail,False,400,883,155,valid,100.0%
41459251,"Mercury Auto Transport, Inc.",True,CT,41.939313,-72.736118,east granby,1,1,True,(Car),2014 ford fusion available 11/23-11/28,(Car),0,AZ,33.241195,-112.768102,buckeye,False,650.22,2652,2713,valid,100.0%
41489262,Affordable Auto Transportation Inc.,True,CT,41.551596,-72.992267,east end,1,1,True,(Car),2010 honda accord,(Car),0,AZ,33.619195,-111.951657,scottsdale,False,600,2510,1938,valid,99.6%
41482398,AmeriFreight,True,FL,28.480217,-81.555979,windermere,1,1,True,(SUV),2004 jeep wrangler,(SUV),0,AZ,33.551108,-112.589754,buckeye,False,450,2169,1340,valid,99.6%
41422059,CLS Services Inc.,True,FL,28.134464,-82.354097,tampa,1,1,True,(Car),2008 dodge charger,(Car),0,AZ,33.551108,-112.589754,buckeye,False,550,2186,627,valid,100.0%
41444644,CJ Auto Transport Services Corp,True,FL,29.912319,-81.542679,saint augustine,1,1,True,(Car),2007 acura tsx,(Car),0,AZ,33.269825,-111.828842,chandler,False,600,2066,262,valid,100.0%
41493221,United Auto Transport,True,FL,25.843972,-80.410369,doral,1,1,True,(Car),2008 mercedes-benz c 300,(Car),0,AZ,33.364632,-111.747279,gilbert,False,600,2368,1187,valid,99.6%
41484548,Cavalier Auto Transport LLC,True,FL,30.454597,-87.258345,pensacola,1,1,True,(SUV),2006 jeep wrangler 2 door,(SUV),0,AZ,33.239632,-111.722224,gilbert,False,650,1683,793,valid,100.0%
41506157,M.R.M.Gold Transportation,True,FL,30.439600,-84.280700,florida state,1,1,True,(Car),2016 ram 3500,(Car),0,AZ,33.704467,-112.177755,glendale,False,1800,1909,40,valid,100.0%
41482290,The Car Carriage LLC,True,FL,28.450127,-81.472588,orlando,1,1,True,(SUV),2012 gmc acadia,(SUV),0,AZ,33.483096,-112.401205,goodyear,False,550,2161,183,valid,100.0%
41489507,The Car Carriage LLC,False,FL,28.550000,-81.380000,orlando,1,1,True,(Car),2007 ford mustang,(Car),0,AZ,33.483096,-112.401205,goodyear,False,600,2161,183,valid,100.0%
41502819,Car Freight Inc,True,FL,30.351867,-81.641536,jacksonville,1,1,True,(SUV),1999 toyota 4runner,(SUV),0,AZ,34.906916,-110.097564,holbrook,False,700,1889,1945,valid,99.9%
41454854,Nationwide Transport Services LLC,True,FL,26.188293,-80.170448,fort lauderdale,1,1,True,(SUV),2016 honda pilot,(SUV),0,AZ,33.449836,-111.767694,mesa,False,600,2342,3518,valid,100.0%
41507187,Philjosh Auto,True,FL,25.781664,-80.170074,miami,1,1,True,(Car),2013 hyundai elantra,(Car),0,AZ,33.397390,-111.719192,mesa,False,575,2360,105,valid,98.1%
41505044,1Flat-Rate LLC,True,FL,29.114039,-80.974033,port orange,1,1,True,(Car),2001 honda accord,(Car),0,AZ,32.467676,-110.984872,oro valley,False,550,2054,944,valid,99.8%
41470458,Q Auto Transport LLC,True,FL,28.652192,-81.209657,oviedo,1,1,True,(SUV),2001 ford explorer sport,(SUV),0,AZ,34.044276,-111.230920,payson,False,600,2120,1465,valid,100.0%
41491233,365 Car Transport,True,FL,28.127336,-82.015046,lakeland,1,1,False,(SUV),2007 gmc envoy,(SUV),0,AZ,33.432017,-112.012424,phoenix,False,650,2146,517,valid,100.0%
40764817,BWT Group LLC,True,FL,28.522810,-81.483258,orlando,1,1,True,(Car),2010 hyundai accent,(Car),0,AZ,33.332898,-112.068640,phoenix,False,600.00,2137,1036,valid,98.6%
41330898,Acme Auto Shipping,True,FL,28.529943,-81.739693,clermont,1,1,True,(SUV),2006 honda cr-v,(SUV),0,AZ,33.909541,-112.132996,phoenix,False,600,2158,1426,valid,100.0%
41406010,Fidelity Auto Shipping,True,FL,25.698850,-80.448256,miami,1,1,True,(Car),2015 toyota corola,(Car),0,AZ,34.619313,-112.419363,prescott,False,500,2478,1296,valid,99.9%
40948539,DAK Shipping & Transport LLC,True,FL,28.662967,-81.517350,apopka,1,1,True,(Heavy Equipment),freightliner 23x8.6x9.8 24000,(Heavy Equipment),0,AZ,33.128750,-111.605343,san tan valley,False,2300,2114,269,valid,99.3%
41475785,Auto Transport 123,True,FL,29.346048,-81.067604,ormond beach,1,1,True,(Car),2005 toyota corolla,(Car),0,AZ,33.494096,-111.922881,scottsdale,False,600,2130,2306,valid,100.0%
41500101,Dynamic Auto Movers LLC,True,FL,30.351094,-87.302993,pensacola,1,1,True,(Car),2015 chevrolet cruze,(Car),0,AZ,33.560513,-111.885972,scottsdale,False,600,1716,1229,valid,100.0%
41008127,BWT Group LLC,True,FL,27.917755,-82.124587,plant city,1,1,True,(Car),2009 hyundai sonata,(Car),0,AZ,33.560513,-111.885972,scottsdale,False,550,2179,1036,valid,98.6%
41334174,"American Car Transporters, Inc",True,FL,27.099079,-82.138576,north port,2,2,True,(2 SUV),"2002 chevrolet suburban
 2013 jeep wrangler unlimited",(2 SUV),0,AZ,33.651330,-112.376444,surprise,False,1050,2268,1641,valid,99.9%
41334177,"American Car Transporters, Inc",True,FL,27.099079,-82.138576,north port,1,1,True,(Motorcycle),2015 harley-davidson ultra classic,(Motorcycle),0,AZ,33.651330,-112.376444,surprise,False,800,2268,1641,valid,99.9%
41465107,Car Delivery USA Inc,True,FL,27.931749,-82.739553,clearwater,2,2,True,(2 Car),"1964 amc rambler
 2007 chrysler pt cruiser",(2 Car),0,AZ,33.609725,-112.439734,surprise,False,1000,2210,2017,valid,99.6%
41437857,Nationwide Transport Services LLC,True,FL,25.977272,-80.150346,hallandale,1,1,True,(SUV),2008 toyota highlander,(SUV),0,AZ,33.393896,-111.929062,tempe,False,650,2346,3518,valid,100.0%
41505638,Transport Nation,True,FL,27.443513,-82.513861,bradenton,1,1,True,(Van),2015 ford transit connect,(Van),0,AZ,33.393896,-111.929062,tempe,False,600,2195,15,valid,100.0%
41464918,A & A Auto Carrier INC (prev. Fast Way Aut...,False,FL,25.773900,-80.193700,miami,1,1,True,(Pickup),2006 ford f250,(Pickup),0,AZ,32.204030,-110.946645,tucson,False,850,2259,207,valid,100.0%
41499278,Montway Inc- Relocation,True,FL,26.252183,-80.209765,margate,1,1,True,(SUV),2011 honda cr-v,(SUV),0,AZ,32.272493,-110.748308,tucson,False,525,2216,257,valid,100.0%
41506397,A & A Auto Carrier INC (prev. Fast Way Aut...,False,FL,25.773900,-80.193700,miami,1,1,True,(Pickup),2006 ford f350,(Pickup),0,AZ,32.204030,-110.946645,tucson,False,850,2259,207,valid,100.0%
41095042,ShipYourCarNow LLC,False,FL,27.947300,-82.458800,tampa,1,1,True,(SUV),2011 kia sorento,(SUV),0,AZ,32.175636,-110.796666,tucson,False,700,2039,3262,valid,99.8%
41476006,ALSTG Inc.,True,FL,29.299226,-81.186502,ormond beach,1,1,True,(SUV),1987 toyota fj cruiser,(SUV),0,AZ,32.707432,-114.680091,yuma,False,625,2259,14,valid,100.0%
41489219,1Flat-Rate LLC,True,GA,33.781290,-85.291924,tallapoosa,1,1,True,(Car),2013 kia soul,(Car),0,AZ,33.364632,-111.747279,gilbert,False,500,1796,944,valid,99.8%
41402845,AAA Transporters,True,GA,33.394116,-84.637826,sharpsburg,1,1,True,(Car),2007 nissan 350 z,(Car),0,AZ,33.370118,-112.405908,goodyear,False,589.11,1870,1497,valid,99.6%
41325011,Olympus Xclusive Transporters LLC,True,GA,32.396006,-84.822670,fort benning,1,1,True,(Car),2004 pontiac grand prix,(Car),0,AZ,31.492661,-111.050018,nogales,False,550,1737,66,valid,100.0%
41343541,Heartland Auto Shippers,True,GA,33.752880,-84.392426,atlanta,1,1,True,(Car),2016 nissan versa,(Car),0,AZ,33.463340,-111.984771,phoenix,False,550,1846,406,valid,100.0%
41473803,NWA,True,GA,34.127756,-84.575753,woodstock,1,1,True,(Other),2002 sun country 53' car trlr -air susp&brakes- u can use it,(Other),0,AZ,34.655971,-112.304724,prescott valley,False,500,1826,222,valid,99.5%
41470831,Car Delivery USA Inc,True,IA,42.024733,-91.661330,cedar rapids,1,1,True,(Pickup),2003 chevrolet silverado 2500,(Pickup),0,AZ,33.509136,-112.124650,phoenix,False,600,1676,2017,valid,99.6%
41091232,Auto Shipping Group Inc.,True,IA,40.706642,-92.925273,centerville,1,1,True,(SUV),2003 acura mdx,(SUV),0,AZ,33.421242,-112.272442,tolleson,False,600,1439,949,valid,99.5%
41502253,Eclipse Auto Transport LLC,False,IA,41.589300,-93.616500,des moines,1,1,True,(Pickup),2004 chevrolet ck2500,(Pickup),0,AZ,32.170204,-110.952223,tucson,False,800,1429,1433,valid,100.0%
41495043,Secure Auto Shipping Inc. 1,True,ID,42.880818,-112.364542,pocatello,1,1,True,(Car),2017 rebel r2,(Car),0,AZ,33.397254,-111.785840,mesa,False,400,848,2001,valid,100.0%
41463178,Nationwide Transport Services LLC,True,ID,47.737863,-116.940158,post falls,1,1,True,(Car),1940 1940 ford coupe,(Car),0,AZ,33.859694,-112.115872,phoenix,False,1050,1324,3518,valid,100.0%
41466910,Dixon Worldwide Logistics Inc,True,IL,38.082004,-88.790162,ewing,1,1,False,(SUV),1988 suzuki samurai,(SUV),0,AZ,35.084849,-114.569897,bullhead city,False,600,1651,332,valid,97.7%
41430301,Car2Transport,True,IL,42.329882,-88.995440,loves park,2,2,True,(2 Car),"2015 honda civic
 2016 chevrolet malibu",(2 Car),0,AZ,33.226330,-111.785174,chandler,False,900,1832,1186,valid,100.0%
41406878,Envision Auto Relocations Inc.,True,IL,42.247435,-88.836500,belvidere,1,1,True,(SUV),2014 nissan murano,(SUV),0,AZ,33.385764,-111.875586,mesa,False,425,1819,955,valid,99.6%
41496302,Patriot Express Global,True,IL,41.923202,-87.809188,elmwood park,1,1,True,(Motorcycle),2009 hd chopper,(Motorcycle),0,AZ,33.573522,-112.259596,peoria,False,500,1799,9,valid,100.0%
41495547,BWT Group LLC,True,IL,42.176115,-87.880338,deerfield,1,1,True,(Car),2012 ford focus,(Car),0,AZ,33.516952,-112.021401,phoenix,False,400,1815,1036,valid,98.6%
41503133,Munich Motors,True,IL,40.234376,-90.621489,littleton,1,1,True,(Pickup),2001 ford f350,(Pickup),0,AZ,33.516952,-112.021401,phoenix,False,700,1606,2,valid,100.0%
41477653,Lightning Auto Carriers,True,IL,40.799212,-89.202438,roanoke,1,1,True,(Car),2015 nissan versa,(Car),0,AZ,33.516952,-112.021401,phoenix,False,300,1699,1000,valid,99.9%
41501173,Smart Talk Transport Inc,True,IL,42.049297,-88.048820,schaumburg,1,1,True,(Van),2001 honda oddessey,(Van),0,AZ,34.619313,-112.419363,prescott,False,500,1755,386,valid,99.0%
41413356,Dependable Auto Move LLC,True,IL,40.479200,-88.987600,bloomington,1,1,True,(SUV),2014 honda cr-v,(SUV),0,AZ,33.619195,-111.951657,scottsdale,False,450,1664,14,valid,100.0%
41499673,Direct Express Auto Transport,True,IL,41.463245,-87.705704,park forest,1,1,True,(Car),2011 chevrolet impala sedan,(Car),0,AZ,32.214174,-110.883826,tucson,False,425,1769,649,valid,98.6%
41495122,Priority Auto Relocations Inc.,True,IL,38.540668,-89.851840,scott afb,1,1,True,(Car),2014 mercedes-benz cls-class,(Car),0,AZ,32.217872,-110.968616,tucson,False,700,1520,950,valid,100.0%
41481891,Dixon Worldwide Logistics Inc,True,IN,39.761798,-86.396741,avon,1,1,False,(Car),ford model t,(Car),0,AZ,34.525073,-111.856111,camp verde,False,825,1657,332,valid,97.7%
41498382,Auto Transport Team LLC,True,IN,40.198591,-85.518077,yorktown,1,1,True,(Car),1996 bmw z3,(Car),0,AZ,33.306400,-111.840600,chandler,False,550,1831,617,valid,99.8%
41507052,Fine Auto Transport LLC,True,IN,39.682420,-86.410520,plainfield,1,1,True,(Pickup),2004 ford f250,(Pickup),0,AZ,34.710590,-112.880866,prescott,False,650,1721,27,valid,100.0%
41499933,Autotransport 4U LLC,False,IN,41.591344,-87.173554,portage,1,1,True,(Car),200 plymouth breeze,(Car),0,AZ,33.651330,-112.376444,surprise,False,450,1815,195,valid,100.0%
41500412,Hi-Speed Rod & Custom LLC,True,KS,38.136981,-97.922579,hutchinson,1,1,False,(Car),1957 chev hearse,(Car),0,AZ,32.248016,-110.947413,tucson,False,700,1030,14,valid,100.0%
41282751,Auto Transport 123,True,KY,36.587872,-87.531983,fort campbell,1,1,True,(Car),2010 chevrolet impala,(Car),0,AZ,35.179976,-114.478025,bullhead city,False,550,1701,2306,valid,100.0%
41478576,Shaughnessy Overland Express/ RMS Auto Bro...,True,LA,30.096608,-89.988048,new orleans,1,1,True,(Car),2011 nissan altima,(Car),0,AZ,33.239632,-111.722224,gilbert,False,600,1516,362,valid,100.0%
41503322,BWT Group LLC,True,LA,30.118491,-90.250284,kenner,1,1,True,(Car),2005 volkswagen new beetle,(Car),0,AZ,33.279298,-111.737812,gilbert,False,425,1499,1036,valid,98.6%
41296517,Auto Transport 123,True,LA,30.449191,-91.187592,baton rouge,1,1,True,(Car),2005 toyota avalon,(Car),0,AZ,34.531700,-112.221600,humboldt,False,475,1528,2306,valid,100.0%
39439952,National Car Transport (prev. American Aut...,False,LA,31.635456,-92.973552,natchez,1,1,True,(Car),2014 volkswagen eos,(Car),0,AZ,33.432721,-111.848279,mesa,False,375.00,1311,1240,valid,99.6%
41362649,Ship A Car Direct (prev. Safe-Direct Car S...,True,MA,42.611064,-71.231595,tewksbury,1,1,True,(Car),2012 audi a6,(Car),0,AZ,33.227904,-111.869248,chandler,False,650,2728,1701,valid,99.9%
41487814,BWT Group LLC,True,MA,42.076452,-71.472236,bellingham,1,1,True,(Car),1970 chevrolet nova,(Car),0,AZ,33.749810,-112.113988,phoenix,False,600,2661,1036,valid,98.6%
41296911,Auto Stork,False,MA,42.348094,-71.055074,boston,1,1,True,(Car),2015 honda civic,(Car),0,AZ,34.619313,-112.419363,prescott,False,900,2652,82,valid,100.0%
41507345,Viceroy Auto Trans,True,MA,41.971449,-70.810876,plympton,1,1,True,(Car),2002 honda accord,(Car),0,AZ,34.474922,-112.465172,prescott,False,675,2679,454,valid,100.0%
41497597,Carsarrive Network Inc.,True,MA,42.154132,-71.215034,east walpole,1,1,True,(Car),2004 mercury mountaineer ref 46662496,(Car),0,AZ,32.269386,-111.004044,tucson,False,700,2699,953,valid,99.4%
41501008,Montway Inc.,True,MA,42.360100,-71.130800,newton,1,1,True,(SUV),2002 chevy trailblazer,(SUV),0,AZ,32.213772,-110.823808,tucson,False,625,2672,1697,valid,100.0%
41503636,Reindeer Logistics Inc. (prev. Reindeer Au...,True,MA,42.489526,-71.158884,woburn,2,2,True,(2 Car),"2008 hyundai sonata 4dr sdn i4 auto limited
 2013 buick enclave awd 4dr convenience",(2 Car),0,AZ,32.098451,-110.730798,tucson,False,1375,2676,980,valid,99.4%
41440913,Ship A Car Direct (prev. Safe-Direct Car S...,True,MA,41.978084,-70.746086,kingston,1,1,True,(Car),2010 chevrolet equinox,(Car),0,AZ,32.707432,-114.680091,yuma,False,875,2909,1701,valid,99.9%
41463430,AAA Anytime Inc.,True,MD,39.432812,-76.292424,edgewood,1,1,True,(Car),2012 nissan versa,(Car),0,AZ,33.241195,-112.768102,buckeye,False,500,2450,1035,valid,99.8%
41298225,RoadRunner Auto Transport,True,MD,39.628950,-77.715500,hagerstown,1,1,True,(Car),2012 ford focus,(Car),0,AZ,33.448600,-112.073300,phoenix,False,850,2309,2591,valid,100.0%
41477312,BWT Group LLC,True,MD,39.003350,-77.035444,silver spring,1,1,True,(Car),2007 honda accord sedan se v-6 automatic,(Car),0,AZ,33.191536,-111.621333,queen creek,False,575,2312,1036,valid,98.6%
41407736,Allegiant Auto Logistics,True,MD,39.207766,-76.826430,columbia,1,1,True,(Car),2014 ford focus,(Car),0,AZ,31.493746,-110.262148,sierra vista,False,600,2300,860,valid,99.5%
40972980,Ship A Car Direct (prev. Safe-Direct Car S...,True,MD,38.659894,-76.539202,chesapeake beach,1,1,True,(Car),2012 acura tsx,(Car),0,AZ,33.393896,-111.929062,tempe,False,600,2401,1701,valid,99.9%
41503136,Arizona Specialty Motors,True,MD,39.024784,-77.246553,potomac,1,1,True,(SUV),2014 mercedes-benz g63,(SUV),0,AZ,33.435698,-111.927836,tempe,False,1200,2297,16,valid,100.0%
41321385,Ship A Car Direct (prev. Safe-Direct Car S...,True,MD,39.107240,-77.098906,rockville,2,2,True,(2 Car),"2009 toyota yaris
 2014 fiat 500",(2 Car),0,AZ,32.337167,-110.986141,tucson,False,1300,2299,1701,valid,99.9%
41496014,Load Builders Inc.,True,MD,39.082606,-76.770192,fort george g meade,1,1,True,(Car),2012 nissan sentra,(Car),0,AZ,32.707432,-114.680091,yuma,False,700,2562,294,valid,100.0%
41440201,SARS Inc. (prev. Southern Az Recovery),False,ME,44.650622,-68.411913,ellsworth,1,1,True,(Pickup),2016 chevrolet 3500 12 ft stake bed,(Pickup),0,AZ,33.448446,-111.973861,phoenix,False,1500,2961,639,valid,98.2%
41179131,Nationwide Transport Services LLC,True,ME,45.740241,-70.245567,moose river,3,3,True,"(Motorcycle, Pickup, SUV)","2000 ford expedition
 2006 yahama v star
 2007 ford f-150","(Motorcycle, Pickup, SUV)",0,AZ,33.128750,-111.605343,san tan valley,False,3500,2815,3518,valid,100.0%
41381314,AmeriFreight,False,ME,44.863639,-68.815722,bangor,1,1,True,(Car),2004 lexus es-300,(Car),0,AZ,32.401553,-110.953036,tucson,False,800,2931,1340,valid,99.6%
41199873,Dixon Worldwide Logistics Inc,True,ME,44.650622,-68.411913,ellsworth,1,1,True,(SUV),2003 lexus es 300,(SUV),0,AZ,32.401553,-110.953036,tucson,False,900,2954,332,valid,97.7%
41499575,Affordable Auto Transport LLC,True,MI,42.472038,-82.996936,warren,1,1,True,(Car),1963 chevrolet impala,(Car),0,AZ,33.386055,-111.841322,mesa,False,900,2031,466,valid,100.0%
41468997,AAA Transporters,True,MI,42.144392,-83.817346,saline,1,1,True,(Car),1967 chevrolet corvette,(Car),0,AZ,33.651723,-112.246213,peoria,False,900,2008,1497,valid,99.6%
41496230,Wholesale Auto Network Co,True,MI,45.944778,-87.966426,iron mountain,1,1,True,(Car),2004 cadillac deville,(Car),0,AZ,33.432017,-112.012424,phoenix,False,550,2100,10,valid,100.0%
41386712,Wecartransport,True,MI,42.465137,-83.460825,novi,1,1,True,(Car),1 scion xd,(Car),0,AZ,31.586057,-110.172918,sierra vista,False,650,2016,244,valid,100.0%
41499975,Q Auto Transport LLC,True,MI,42.723834,-83.415667,clarkston,1,1,True,(Car),1990 buick reatta,(Car),0,AZ,33.674346,-112.365296,sun city west,False,800,2081,1465,valid,100.0%
41505545,Yellow Brick Transport,True,MI,43.559428,-83.984058,bay city,1,1,True,(Car),2002 lexus gs430,(Car),0,AZ,33.363884,-111.935477,tempe,False,500,2102,115,valid,96.5%
41407553,"DIY Transport, Inc.",True,MI,42.655596,-83.529724,white lake,1,1,False,(SUV),2001 pontiac aztek,(SUV),0,AZ,32.196131,-111.005014,tucson,False,600,2038,1988,valid,100.0%
41479743,Trevino Logistics,True,MI,42.302659,-83.245639,dearborn,1,1,True,(Car),1932 ford roadster,(Car),0,AZ,33.551798,-112.414557,waddell,False,1200,2033,260,valid,100.0%
41506460,Buyright Enterprises,True,MN,45.262162,-93.013708,forest lake,1,1,True,(Car),2015 chevrolet malibu,(Car),0,AZ,33.358686,-112.328317,avondale,False,500,1737,167,valid,99.4%
41505047,Morris Auto Plaza,True,MN,45.893294,-95.397092,alexandria,1,1,True,(SUV),2016 chevrolet traverse,(SUV),0,AZ,33.266332,-111.943009,chandler,False,400,1850,117,valid,99.1%
41461821,Heartland Auto Shippers,True,MN,44.851871,-93.554242,chanhassen,1,1,True,(Car),2008 pontiac grand prix,(Car),0,AZ,33.433576,-111.718432,mesa,False,450,1642,406,valid,100.0%
41490459,AutoStar Transport Express LLC (prev. Auto...,True,MN,44.874438,-93.334673,minneapolis,1,1,True,(Car),2015 volkswagen passat,(Car),0,AZ,33.619195,-111.951657,scottsdale,False,570,1633,2602,valid,100.0%
41497770,"Haul Away Logistics, LLC",True,MN,45.441882,-94.531549,richmond,1,1,True,(SUV),2015 chevrolet equinox,(SUV),0,AZ,33.783098,-112.364429,sun city,False,500,1779,1246,valid,99.3%
41383591,Secure Auto Shipping Inc. 1,True,MS,33.425835,-88.840607,starkville,1,1,True,(SUV),2016 gmc acadia,(SUV),0,AZ,33.432721,-111.848279,mesa,False,645,1597,2001,valid,100.0%
41499984,Secure Auto Shipping Inc. 1,True,MS,33.425835,-88.840607,starkville,1,1,True,(Car),2010 toyota camry,(Car),0,AZ,33.432721,-111.848279,mesa,False,500,1597,2001,valid,100.0%
41308872,Vintage Offroad Inc,True,NC,35.400197,-80.866352,huntersville,1,1,True,(Pickup),1956 chevrolet 2 ton dually,(Pickup),0,AZ,35.474926,-111.700018,flagstaff,False,1200,1971,93,valid,98.9%
41479118,ShipYourCarNow LLC,False,NC,35.111471,-80.609882,indian trail,1,1,True,(Car),2006 honda accord,(Car),0,AZ,31.833498,-111.002604,green valley,False,725,2013,3262,valid,99.8%
41214786,"DIY Transport, Inc.",True,NC,35.131046,-80.851183,charlotte,1,1,True,(SUV),2004 honda element,(SUV),0,AZ,33.490605,-112.261437,phoenix,False,620,2115,1988,valid,100.0%
41491432,Ecar Movers,True,NC,35.050811,-80.822143,charlotte,1,1,True,(Car),2016 jeep cherokee latitude,(Car),0,AZ,33.674517,-111.955801,phoenix,False,600,2096,458,valid,99.5%
41500378,Auto Shipping Group Inc.,True,NC,35.181450,-80.747842,charlotte,1,1,True,(Car),2016 vw jetta,(Car),0,AZ,33.502424,-111.978150,phoenix,False,700,2046,949,valid,99.5%
41240690,Allied Auto Shippers LLC,True,NC,34.925912,-80.734730,waxhaw,1,1,True,(SUV),2016 honda cr-v,(SUV),0,AZ,33.651330,-112.376444,surprise,False,700,2124,477,valid,100.0%
41503674,Apex Auto Sale LLC,True,NC,36.115362,-79.738186,greensboro,2,1,True,(2 SUV),(2) 2003 honda pilot,(2 SUV),0,AZ,33.435698,-111.927836,tempe,False,900,2101,120,valid,94.2%
41481752,Ship A Car Direct (prev. Safe-Direct Car S...,True,NC,36.053601,-80.317729,winston salem,2,2,True,(2 Car),"2016 nissan maxima
 2017 acura rdx",(2 Car),0,AZ,33.334690,-111.932486,tempe,False,1625,2155,1701,valid,99.9%
41287106,Get It Done Transportation Inc.,True,NC,34.441389,-77.674658,hampstead,1,1,True,(Car),1994 jeep wrangler - 2 door,(Car),0,AZ,35.115102,-110.290263,winslow,False,600,2098,1393,valid,99.0%
41470523,New World Auto Transport,True,ND,48.232500,-101.295600,minot,1,1,True,(Car),1927 ford hotrod model t,(Car),0,AZ,32.199172,-110.330384,benson,False,900,1656,2287,valid,100.0%
41498383,National Car Transport (prev. American Aut...,True,NE,41.129614,-101.643943,ogallala,1,1,False,(SUV),1999 dodge durango,(SUV),0,AZ,36.803584,-111.203916,page,False,700,824,1240,valid,99.6%
41486201,South Beach Transport,True,NE,41.277232,-96.252542,elkhorn,1,1,True,(Car),1999 mercedes-benz slk 230,(Car),0,AZ,33.769962,-111.925890,scottsdale,False,500,1431,1954,valid,99.9%
41500642,Acme Auto Shipping,True,NJ,40.072114,-74.204978,lakewood,1,1,True,(Car),2011 toyota avalon,(Car),0,AZ,33.227904,-111.869248,chandler,False,630,2478,1426,valid,100.0%
41504250,Eship Corp,True,NJ,40.944590,-74.070169,paramus,1,1,True,(SUV),2014 volvo xc60,(SUV),0,AZ,31.833498,-111.002604,green valley,False,800,2478,1073,valid,99.0%
41494928,Big Apple Worldwide,True,NJ,40.670780,-74.106366,Bayonne,1,1,True,(Car),2007 toyota camry,(Car),0,AZ,33.428058,-112.186166,Phoenix,False,700,2459,117,valid,87.6%
41435795,RoadRunner Auto Transport,True,NJ,40.440804,-74.836716,ringoes,1,1,True,(Pickup),2016 gmc sierra 2500hd,(Pickup),0,AZ,34.619313,-112.419363,prescott,False,2000,2372,2591,valid,100.0%
41498893,Montway Inc.,True,NJ,40.740810,-74.070422,jersey city,1,1,True,(Car),2016 honda civic,(Car),0,AZ,32.214174,-110.883826,tucson,False,425,2443,1697,valid,100.0%
41048641,PRA Location Services LLC,False,NV,36.174300,-115.139100,las vegas,1,1,True,(RV),2008 airbus rexhall,(RV),0,AZ,34.475370,-114.340188,lake havasu city,False,275,151,580,valid,100.0%
41376779,Automotive Fleet Enterprises Inc,True,NV,36.239873,-115.043810,las vegas,1,1,True,(Van),2016 ford transit wagon,(Van),0,AZ,36.803584,-111.203916,page,False,350,283,426,valid,99.5%
41319184,PRA Location Services LLC,False,NV,36.174300,-115.139100,las vegas,1,1,True,(Travel Trailer),2008 keystone everest,(Travel Trailer),0,AZ,34.610000,-112.315300,prescott valley,False,275,251,580,valid,100.0%
41417047,PRA Location Services LLC,False,NV,36.174300,-115.139100,las vegas,1,1,True,(Car),2014 ford fusion,(Car),0,AZ,32.707432,-114.680091,yuma,False,200,308,580,valid,100.0%
41419892,Premium Auto Movers LLC,True,NY,40.702353,-73.942541,brooklyn,1,1,True,(Car),2007 nissan versa,(Car),0,AZ,33.358686,-112.328317,avondale,False,551,2501,609,valid,100.0%
41406965,American Auto Transport,True,NY,40.846411,-73.898446,bronx,1,1,True,(Car),2016 dodge caravan,(Car),0,AZ,33.386055,-111.841322,mesa,False,700,2463,3047,valid,99.9%
41416006,BWT Group LLC,True,NY,40.933738,-73.010251,mount sinai,1,1,True,(Pickup),1951 ford f 5,(Pickup),0,AZ,35.212771,-111.894604,parks,False,1900,2430,1036,valid,98.6%
41501180,Hat Creek Carriers,True,NY,43.249164,-73.880538,corinth,1,1,True,(Other),2014 honda civic,(Other),0,AZ,33.341662,-111.992412,phoenix,False,774,2555,727,valid,87.8%
41499462,Royal Auto Carrier LLC,False,NY,40.716392,-73.367108,west babylon,1,1,True,(Car),2016 no more cheap loads any,(Car),0,AZ,33.448446,-111.973861,phoenix,False,1000,2483,259,valid,100.0%
41138596,All Shipping Logistics,True,NY,40.756502,-73.580142,westbury,1,1,True,(Car),2014 volkswagen jetta,(Car),0,AZ,33.610962,-111.890114,scottsdale,False,700,2448,70,valid,98.6%
41498736,Premium Auto Movers LLC,True,NY,42.907110,-78.626353,lancaster,1,1,True,(Other),2016 chevrolet suburban,(Other),0,AZ,31.586057,-110.172918,sierra vista,False,875,2240,609,valid,100.0%
41465238,Fox Auto Transport,True,NY,41.173776,-73.771424,chappaqua,1,1,True,(Car),1975 chevrolet caprice classic,(Car),0,AZ,32.298749,-110.840616,tucson,False,599,2505,1197,valid,99.7%
41502451,Get It Done Transportation Inc.,True,NY,40.686456,-73.410472,amityville,1,1,True,(Car),2010 chevrolet cobalt,(Car),0,AZ,32.269386,-111.004044,tucson,False,700,2506,1393,valid,99.0%
41424348,Auto Elite Transport,True,OH,41.416152,-81.922022,north olmsted,2,2,False,(2 Pickup),"1964 international 1100
 1966 ford f100",(2 Pickup),0,AZ,33.414893,-111.553493,apache junction,False,950,2021,204,valid,99.5%
41491115,Auto Elite Transport,True,OH,41.305728,-81.939778,columbia station,1,1,True,(Pickup),1968 international 12000,(Pickup),0,AZ,34.619313,-112.419363,prescott,False,500,1998,204,valid,99.5%
41363189,Nation Auto Transport LLC,True,OH,41.438596,-81.741190,brooklyn,1,1,True,(Car),2007 toyota corolla,(Car),0,AZ,31.586057,-110.172918,sierra vista,False,630,2037,1360,valid,99.9%
41491259,Elite Auto Shipper,False,OH,40.263560,-83.368674,marysville,1,1,True,(Car),2008 toyota camry,(Car),0,AZ,33.393896,-111.929062,tempe,False,500,1929,827,valid,99.8%
41504947,Dixon Worldwide Logistics Inc,True,OH,41.451698,-82.155998,lorain,1,1,True,(Car),2004 acura 2.5 tl,(Car),0,AZ,32.217872,-110.968616,tucson,False,600,2036,332,valid,97.7%
41473282,Smart Talk Transport Inc,True,OK,35.506800,-97.762500,yukon,1,1,True,(Pickup),1990 ford f150,(Pickup),0,AZ,33.651723,-112.246213,peoria,False,450,984,386,valid,99.0%
41180194,Heartland Auto Transportation of NM (prev....,False,OR,45.308500,-122.779410,wilsonville,1,1,True,(Car),2016 fiat 500x,(Car),0,AZ,33.448446,-111.973861,phoenix,False,750,1318,234,valid,98.7%
41437808,V&E Auto LLC,True,OR,45.481702,-122.557409,Portland,1,1,False,(Heavy Equipment),2007 volvo vnl670,(Heavy Equipment),0,AZ,33.384976,-112.105396,Phoenix,False,3000,1342,50,valid,100.0%
41289040,Acme Auto Shipping,False,OR,45.503528,-122.865385,beaverton,1,1,True,(Car),2015 kia forte,(Car),0,AZ,33.494096,-111.922881,scottsdale,False,485,1344,1426,valid,100.0%
41424052,All Terrain Logistics Inc (prev. All Terra...,True,OR,44.338430,-122.615535,sweet home,1,1,True,(SUV),1988 chevrolet suburban,(SUV),0,AZ,32.217872,-110.968616,tucson,False,550,1390,406,valid,99.0%
41407198,Stateway Auto Transportation,True,OR,45.575467,-123.183536,forest grove,1,1,True,(Pickup),2006 toyota tacoma,(Pickup),0,AZ,32.707432,-114.680091,yuma,False,500,1258,2429,valid,98.9%
41064574,Pelican Auto Transport,True,PA,39.988978,-75.098751,philadelphia,1,1,True,(Car),2011 chevrolet malibu,(Car),0,AZ,33.475819,-112.306754,avondale,False,450,2409,59,valid,95.8%
41467800,Direct Connect Auto Transport Inc.,True,PA,40.113550,-76.506172,mount joy,1,1,True,(Car),2007 nissan altima,(Car),0,AZ,32.916273,-111.744834,casa grande,False,600,2372,1945,valid,99.8%
41497295,Nationwide Transport Services LLC,True,PA,40.762687,-75.544196,walnutport,1,1,True,(Pickup),2008 gmc canyon,(Pickup),0,AZ,33.269825,-111.828842,chandler,False,800,2408,3518,valid,100.0%
41478067,Stateway Auto Transportation,False,PA,40.403364,-79.863845,braddock,1,1,True,(SUV),2003 buick rendezous,(SUV),0,AZ,33.432721,-111.848279,mesa,False,600,2081,2429,valid,98.9%
41283696,Olympus Xclusive Transporters LLC,True,PA,40.052659,-75.189469,philadelphia,1,1,True,(Car),1992 mercedes-benz 500,(Car),0,AZ,33.384976,-112.105396,phoenix,False,600,2402,66,valid,100.0%
41400666,Auto Transport 123,True,PA,40.249212,-75.144388,warrington,2,2,True,(2 Car),"2000 mercedes-benz e-class
 2014 toyota prius",(2 Car),0,AZ,33.191536,-111.621333,queen creek,False,1200,2379,2306,valid,100.0%
41408625,Top Auto Logistics LLC,True,RI,41.776088,-71.434314,cranston,1,1,True,(Car),2002 bmw 3 series,(Car),0,AZ,33.341662,-111.992412,phoenix,False,550,2679,62,valid,100.0%
41498924,E Transport Solutions Inc.,True,SC,32.227874,-80.887555,bluffton,1,1,True,(Van),2003 honda odyssey,(Van),0,AZ,34.636170,-112.103482,cottonwood,False,900,2052,881,valid,100.0%
41497666,"Program Auto Locators, LLC (prev. Program ...",True,SC,33.886234,-78.652200,little river,2,2,True,(2 Pickup),(2) 2015 gmc sierra 1500,(2 Pickup),0,AZ,33.456539,-111.632550,mesa,False,1400,2223,625,valid,100.0%
41436908,International Van Lines,True,SC,32.821494,-79.852362,mount pleasant,1,1,True,(Car),2014 lexus is 250,(Car),0,AZ,33.545998,-111.969375,paradise valley,False,725,2179,121,valid,95.0%
41434424,BWT Group LLC,True,SC,34.682500,-82.816100,clemson,2,2,True,(2 Car),"2013 chrysler 300
 2013 mercedes-benz c250",(2 Car),0,AZ,33.341662,-111.992412,phoenix,False,1000,1962,1036,valid,98.6%
41342744,Heartland Auto Shippers,True,TN,36.009056,-83.989551,knoxville,1,1,True,(Car),2015 chevrolet cruze,(Car),0,AZ,33.075263,-112.032976,maricopa,False,425,1895,406,valid,100.0%
41156571,Stateway Auto Transportation,True,TN,35.962918,-83.920600,knoxville,1,1,True,(SUV),2007 chevrolet tahoe,(SUV),0,AZ,33.571091,-112.051362,phoenix,False,500,1857,2429,valid,98.9%
41303699,Massrec LLC,True,TN,36.068396,-86.723889,nashville,1,1,True,(Car),2013 kia forte,(Car),0,AZ,33.472932,-112.194796,phoenix,False,600,1695,337,valid,99.4%
listingId,formattedCompany,comparable,delivery.state,delivery.latitude,delivery.longitude,delivery.city,numVehicles,vehiclesCount,vehicleOperable,vehicles,vehicle_make,vehicle_types,wideLoad,pickup.state,pickup.latitude,pickup.longitude,pickup.city,preferred_shipper,price,truckMiles,rating_count,rating_license,rating_score
41485311,Superior Quality Inc,False,TN,36.166687,-86.779932,nashville,1,1,True,(SUV),2005 jeep grand cherokee,(SUV),0,AZ,32.071354,-110.908940,tuscon,False,500,1612,693,valid,100.0%
41500829,South Beach Transport,True,TX,33.142530,-95.767169,cumby,1,1,True,(Pickup),1976 ford f250,(Pickup),0,AZ,31.664920,-111.064059,amado,False,600,1047,1954,valid,99.9%
41182777,Get It Done Transportation Inc.,True,TX,30.660437,-96.323281,bryan,1,1,True,(Pickup),2012 dodge ram 1500,(Pickup),0,AZ,33.346281,-111.815402,gilbert,False,500,1103,1393,valid,99.0%
41490434,AAA Transporters,True,TX,30.241524,-97.768770,austin,1,1,True,(SUV),1972 ford bronco,(SUV),0,AZ,33.516952,-112.021401,phoenix,False,650,1010,1497,valid,99.6%
41505932,Milton Motors Inc,True,TX,29.902798,-95.271712,houston,1,1,False,(SUV),toy rav 4,(SUV),0,AZ,33.428058,-112.186166,phoenix,False,475,1200,857,valid,99.5%
39936629,DAK Shipping & Transport LLC,True,TX,27.508492,-99.503633,laredo,1,1,True,(Heavy Equipment),boom lift genie s-125 35x8.2x10.1 45000lbs,(Heavy Equipment),0,AZ,33.690926,-112.041720,phoenix,False,1700,1052,269,valid,99.3%
41273813,Dixon Worldwide Logistics Inc,True,TX,29.472779,-98.535643,san antonio,1,1,True,(Car),2012 hyundai elantra,(Car),0,AZ,34.619313,-112.419363,prescott,False,300,1079,332,valid,97.7%
41224253,Nationwide Transport Services LLC,True,TX,29.396556,-98.460978,san antonio,1,1,False,(SUV),1951 chevrolet 3500  truck,(SUV),0,AZ,32.403137,-111.087882,tucson,False,600,890,3518,valid,100.0%
41507772,Ready Auto Transport (RAT),True,UT,37.265502,-113.791338,st george,1,1,True,(Other),2016 mercedes-benz gl class,(Other),0,AZ,33.279298,-111.737812,gilbert,False,235,447,1697,valid,99.9%
41399090,Dixon Worldwide Logistics Inc,False,VA,37.613414,-77.257154,mechanicsville,1,1,True,(Car),2012 nissan altima,(Car),0,AZ,34.610000,-112.315300,prescott valley,False,550,2251,332,valid,97.7%
41398977,"BKK Transport And Brokerage, Inc.",True,VA,39.160038,-77.521852,leesburg,1,1,True,(Car),2016 mazda 6,(Car),0,AZ,32.331430,-111.050525,tucson,False,550,2270,1045,valid,100.0%
41248411,Allied Auto Shippers LLC,True,VT,44.454475,-73.184981,s burlington,1,1,True,(SUV),2007 nissan murano,(SUV),0,AZ,33.531652,-111.645816,mesa,False,700,2584,477,valid,100.0%
41507337,ECarmover Inc,True,WA,46.219314,-119.178059,kennewick,1,1,True,(Car),1991 lexus ls 400,(Car),0,AZ,32.972309,-111.532687,coolidge,False,600,1256,894,valid,99.8%
41464111,Nationwide United Auto Transport Corp,True,WA,46.994116,-122.731954,olympia,1,1,True,(SUV),2004 suzuki grand vitara,(SUV),0,AZ,31.833498,-111.002604,green valley,False,700,1594,348,valid,100.0%
41482705,JBA MOTORS LLC,True,WA,47.945521,-122.239661,everett,1,1,True,(Car),2005 cadillac xlr,(Car),0,AZ,33.385764,-111.875586,mesa,False,400,1455,193,valid,99.0%
41496885,Acme Auto Shipping,True,WA,47.303898,-122.375736,federal way,1,1,True,(Car),2015 mazda mazda6,(Car),0,AZ,33.531652,-111.645816,mesa,False,575,1497,1426,valid,100.0%
40563085,Auto Transport 123,True,WA,47.289850,-122.109621,auburn,1,1,True,(Car),2011 mazda 3,(Car),0,AZ,33.651723,-112.246213,peoria,False,625.00,1396,2306,valid,100.0%
41491217,Ultra Auto Transport LLC,True,WA,47.664823,-122.383784,seattle,1,1,True,(SUV),2006 nissan pathfinder,(SUV),0,AZ,33.859694,-112.115872,phoenix,False,400,1408,664,valid,100.0%
41454936,Passage Auto Transport,True,WA,47.034538,-120.391408,ellensburg,1,1,True,(Car),2016 mercedes-benz c450,(Car),0,AZ,33.458894,-111.926374,scottsdale,False,500,1369,925,valid,99.5%
41378860,American United Auto Transport,True,WA,46.796441,-119.122467,othello,1,1,False,(Pickup),1999 nissan frontier,(Pickup),0,AZ,33.458894,-111.926374,scottsdale,False,875,1266,102,valid,99.0%
41140904,MG Auto Relocation Corp,True,WA,47.673156,-122.197628,kirkland,1,1,True,(SUV),2014 lexus rx 350,(SUV),0,AZ,33.725264,-112.458877,surprise,False,675,1381,35,valid,100.0%
39759282,"DIY Transport, Inc.",True,WA,47.611423,-122.334341,seattle,2,2,True,"(Car, Pickup)","2000 ford f-150 ext cab
 2014 nissan sentra","(Car, Pickup)",0,AZ,32.311926,-110.918964,tucson,False,1050.00,1574,1988,valid,100.0%
41337126,Stateway Auto Transportation,True,WA,48.048951,-121.749054,granite falls,1,1,True,(Car),2006 dodge charger,(Car),0,AZ,32.213772,-110.823808,tucson,False,550,1679,2429,valid,98.9%
41345128,Reindeer Logistics Inc. (prev. Reindeer Au...,True,WA,47.259358,-122.396924,tacoma,1,1,True,(Car),2012 volkswagen jetta sportwagen 4dr manual tdi,(Car),0,AZ,32.248016,-110.947413,tucson,False,550,1589,980,valid,99.4%
41500598,Acme Auto Shipping,False,WA,47.544110,-122.313368,seattle,1,1,True,(Car),2005 toyota corolla,(Car),0,AZ,32.248016,-110.947413,tucson,False,600,1609,1426,valid,100.0%
41449932,Dixon Worldwide Logistics Inc 2,False,WA,47.362358,-122.198280,kent,1,1,True,(Other),2016 ram 1500 crew cab,(Other),0,AZ,32.723264,-114.537883,yuma,False,800,1393,2,valid,100.0%
41485180,B & J Car Company,False,WI,43.098901,-89.313444,madison,1,1,False,(Car),1959 cadillac deville,(Car),0,AZ,33.448446,-111.973861,phoenix,False,850,1881,26,valid,96.2%
41400271,Dixon Worldwide Logistics Inc,True,WI,43.706994,-87.743121,sheboygan,1,1,True,(Car),1936 mercedes-benz other,(Car),0,AZ,33.674346,-112.365296,sun city west,False,500,1931,332,valid,97.7%
41506165,Plaza Motors Inc,True,WI,42.794388,-88.399486,east troy,1,1,True,(Car),2004 porsche 911,(Car),0,AZ,33.435698,-111.927836,tempe,False,500,1861,177,valid,100.0%
41448341,"Mercury Auto Transport, Inc.",False,WI,42.972970,-87.871975,milwaukee,1,1,True,(Car),2008 chevrolet corvette,(Car),0,AZ,33.393896,-111.929062,tempe,False,900,1896,2713,valid,100.0%
41500956,Montway Inc.,True,WV,39.458308,-77.972875,martinsburg,1,1,True,(SUV),2002 chevy trailblazer,(SUV),0,AZ,32.213772,-110.823808,tucson,False,625,2239,1697,valid,100.0%
